SN,Source,WHO_REGION,Region,Country,ISO3,ISO2,ADMIN1,ADMIN1ID,ADMIN2,ADMIN2ID,IU_NAME,IU_ID,Location,SiteID,Longitude,Latitude,Georeliability,Location_type,Survey_type,Year,Age_start,Age_end,HK_examined,HK_positive,HK_prevalence,Asc_examined,Asc_positive,Asc_prevalence,TT_examined,TT_positive,TT_prevalence
24275,SCI,AFRO,Western Africa,Liberia,LBR,LR,Bomi,2746,Klay,39172,Bomi,26818,Amos A. Fully Elementary School,,-10.88558,6.59872,3,,Mapping,2013,10,14,30,8,0.266666667,30,10,0.333333333,30,1,0.033333333
24276,SCI,AFRO,Western Africa,Liberia,LBR,LR,Bomi,2746,Klay,39172,Bomi,26818,Barmoore Public School,,-10.89821,6.90808,3,,Mapping,2013,10,14,30,2,0.066666667,30,3,0.1,30,0,0
24277,SCI,AFRO,Western Africa,Liberia,LBR,LR,Bomi,2746,Klay,39172,Bomi,26818,Bassa Public School,,-10.73029,6.58376,3,,Mapping,2013,10,14,30,6,0.2,30,5,0.166666667,30,0,0
24278,SCI,AFRO,Western Africa,Liberia,LBR,LR,Bomi,2746,Klay,39172,Bomi,26818,Beafine Public School,,-10.89724,6.85998,3,,Mapping,2013,10,14,30,2,0.066666667,30,3,0.1,30,0,0
24279,SCI,AFRO,Western Africa,Liberia,LBR,LR,Bomi,2746,Klay,39172,Bomi,26818,Beajah Public School,,-10.85831,6.82909,3,,Mapping,2013,10,14,30,2,0.066666667,30,6,0.2,30,0,0
24280,SCI,AFRO,Western Africa,Liberia,LBR,LR,Bomi,2746,Klay,39172,Bomi,26818,Beakini Public School,,-10.85891,6.73518,3,,Mapping,2013,10,14,30,8,0.266666667,30,11,0.366666667,30,1,0.033333333
24282,SCI,AFRO,Western Africa,Liberia,LBR,LR,Bomi,2746,Klay,39172,Bomi,26818,Beh-Sao Public School,,-10.91408,6.73505,3,,Mapping,2013,10,14,30,4,0.133333333,30,1,0.033333333,30,0,0
24281,SCI,AFRO,Western Africa,Liberia,LBR,LR,Bomi,2746,Klay,39172,Bomi,26818,Beh Town Elementary and Junior High School,,-10.98512,6.6181502,3,,Mapping,2013,10,14,30,2,0.066666667,30,4,0.133333333,30,0,0
24283,SCI,AFRO,Western Africa,Liberia,LBR,LR,Bomi,2746,Mecca,39173,Bomi,26818,Big Geweh Public School,,-10.60921,6.7968,3,,Mapping,2013,10,14,30,3,0.1,30,4,0.133333333,30,0,0
24284,SCI,AFRO,Western Africa,Liberia,LBR,LR,Bomi,2746,Klay,39172,Bomi,26818,Bola Public School,,-10.84416,6.91345,3,,Mapping,2013,10,14,30,1,0.033333333,30,1,0.033333333,30,0,0
24285,SCI,AFRO,Western Africa,Liberia,LBR,LR,Bomi,2746,Klay,39172,Bomi,26818,Bonjeh Public School,,-10.85572,6.48911,3,,Mapping,2013,10,14,30,1,0.033333333,30,3,0.1,30,0,0
24286,SCI,AFRO,Western Africa,Liberia,LBR,LR,Bomi,2746,Klay,39172,Bomi,26818,Dagweh-Town Public School,,-10.94603,6.5692,3,,Mapping,2013,10,14,30,3,0.1,30,5,0.166666667,30,0,0
24287,SCI,AFRO,Western Africa,Liberia,LBR,LR,Bomi,2746,Klay,39172,Bomi,26818,Damah Public School,,-10.9215,6.71993,3,,Mapping,2013,10,14,30,6,0.2,30,1,0.033333333,30,0,0
24288,SCI,AFRO,Western Africa,Liberia,LBR,LR,Bomi,2746,Klay,39172,Bomi,26818,Deadilah Public School,,-10.76246,6.68693,3,,Mapping,2013,10,14,30,6,0.2,30,5,0.166666667,30,0,0
24289,SCI,AFRO,Western Africa,Liberia,LBR,LR,Bomi,2746,Klay,39172,Bomi,26818,Demeh Public School,,-10.8345,6.52407,3,,Mapping,2013,10,14,30,3,0.1,30,5,0.166666667,30,0,0
24290,SCI,AFRO,Western Africa,Liberia,LBR,LR,Bomi,2746,Klay,39172,Bomi,26818,Domabeay Public School,,-10.86101,6.6407,3,,Mapping,2013,10,14,30,5,0.166666667,30,3,0.1,30,1,0.033333333
24291,SCI,AFRO,Western Africa,Liberia,LBR,LR,Bomi,2746,Klay,39172,Bomi,26818,Fefeh Town School,,-10.74138,6.65115,3,,Mapping,2013,10,14,30,8,0.266666667,30,7,0.233333333,30,0,0
24292,SCI,AFRO,Western Africa,Liberia,LBR,LR,Bomi,2746,Klay,39172,Bomi,26818,Folley Town Jeon School,,-10.83715,6.58127,3,,Mapping,2013,10,14,30,4,0.133333333,30,2,0.066666667,30,0,0
24293,SCI,AFRO,Western Africa,Liberia,LBR,LR,Bomi,2746,Klay,39172,Bomi,26818,Gayah Hills Public School,,-10.91133,6.76038,3,,Mapping,2013,10,14,30,1,0.033333333,30,3,0.1,30,0,0
24294,SCI,AFRO,Western Africa,Liberia,LBR,LR,Bomi,2746,Klay,39172,Bomi,26818,Gbah Public School,,-10.97398,6.7145,3,,Mapping,2013,10,14,30,2,0.066666667,30,2,0.066666667,30,0,0
24295,SCI,AFRO,Western Africa,Liberia,LBR,LR,Bomi,2746,Klay,39172,Bomi,26818,Gbaigbon Public School,,-10.99524,6.57014,3,,Mapping,2013,10,14,30,2,0.066666667,30,4,0.133333333,30,0,0
24296,SCI,AFRO,Western Africa,Liberia,LBR,LR,Bomi,2746,Klay,39172,Bomi,26818,Gbao Public School,,-10.66823,6.68218,3,,Mapping,2013,10,14,30,3,0.1,30,8,0.266666667,30,0,0
24297,SCI,AFRO,Western Africa,Liberia,LBR,LR,Bomi,2746,Klay,39172,Bomi,26818,Gertrude Yancy Public School,,-10.87114,6.69475,3,,Mapping,2013,10,14,30,7,0.233333333,30,7,0.233333333,30,0,0
24298,SCI,AFRO,Western Africa,Liberia,LBR,LR,Bomi,2746,Klay,39172,Bomi,26818,Goghen Public School,,-10.73279,6.73258,3,,Mapping,2013,10,14,30,6,0.2,30,10,0.333333333,30,0,0
24299,SCI,AFRO,Western Africa,Liberia,LBR,LR,Bomi,2746,Klay,39172,Bomi,26818,Gomai Public School,,-10.93364,6.5763,3,,Mapping,2013,10,14,30,2,0.066666667,30,5,0.166666667,30,0,0
24300,SCI,AFRO,Western Africa,Liberia,LBR,LR,Bomi,2746,Klay,39172,Bomi,26818,Gonjeh Public School,,-10.8350938,6.6467576,1,,Mapping,2013,10,14,30,6,0.2,30,5,0.166666667,30,0,0
24301,SCI,AFRO,Western Africa,Liberia,LBR,LR,Bomi,2746,Klay,39172,Bomi,26818,Guie Town Public School,,-10.85067,6.75569,3,,Mapping,2013,10,14,30,6,0.2,30,14,0.466666667,30,1,0.033333333
24302,SCI,AFRO,Western Africa,Liberia,LBR,LR,Bomi,2746,Klay,39172,Bomi,26818,H. Q. Taylor Elem. & Jr. High Sch,,-10.81474,6.87509,3,,Mapping,2013,10,13,30,0,0,30,2,0.066666667,30,1,0.033333333
24303,SCI,AFRO,Western Africa,Liberia,LBR,LR,Bomi,2746,Klay,39172,Bomi,26818,Hill Town Public School,,-10.77649,6.6215,3,,Mapping,2013,10,14,30,9,0.3,30,10,0.333333333,30,0,0
24304,SCI,AFRO,Western Africa,Liberia,LBR,LR,Bomi,2746,Klay,39172,Bomi,26818,Jawajeh Public School,,-10.8869572,6.7337866,1,,Mapping,2013,10,13,30,5,0.166666667,30,8,0.266666667,30,3,0.1
24305,SCI,AFRO,Western Africa,Liberia,LBR,LR,Bomi,2746,Klay,39172,Bomi,26818,John L. Parvola Elem Public Sch,,-10.81469,6.86207,3,,Mapping,2013,10,14,30,1,0.033333333,30,2,0.066666667,30,0,0
24306,SCI,AFRO,Western Africa,Liberia,LBR,LR,Bomi,2746,Klay,39172,Bomi,26818,Julijuah Public School,,-10.7568234,6.6734761,1,,Mapping,2013,10,14,30,5,0.166666667,30,6,0.2,30,0,0
24307,SCI,AFRO,Western Africa,Liberia,LBR,LR,Bomi,2746,Klay,39172,Bomi,26818,Kamara Town Public School,,-10.85404,6.89399,3,,Mapping,2013,10,12,30,2,0.066666667,30,8,0.266666667,30,0,0
24308,SCI,AFRO,Western Africa,Liberia,LBR,LR,Bomi,2746,Klay,39172,Bomi,26818,Kartumu Y. Boakai Sch,,-10.88712,6.73478,3,,Mapping,2013,10,14,30,1,0.033333333,30,4,0.133333333,30,0,0
24309,SCI,AFRO,Western Africa,Liberia,LBR,LR,Bomi,2746,Klay,39172,Bomi,26818,Kpagbola Public School,,-10.98874,6.60115,3,,Mapping,2013,10,14,30,4,0.133333333,30,5,0.166666667,30,0,0
24310,SCI,AFRO,Western Africa,Liberia,LBR,LR,Bomi,2746,Klay,39172,Bomi,26818,Levekai Public School,,-10.72616,6.62621,3,,Mapping,2013,10,14,30,7,0.233333333,30,7,0.233333333,30,0,0
24311,SCI,AFRO,Western Africa,Liberia,LBR,LR,Bomi,2746,Klay,39172,Bomi,26818,Levuman Public School,,-10.84174,6.51167,3,,Mapping,2013,10,14,30,2,0.066666667,30,5,0.166666667,30,0,0
24312,SCI,AFRO,Western Africa,Liberia,LBR,LR,Bomi,2746,Klay,39172,Bomi,26818,Mae David Public School,,-10.69636,6.63983,3,,Mapping,2013,10,14,30,6,0.2,30,7,0.233333333,30,0,0
24313,SCI,AFRO,Western Africa,Liberia,LBR,LR,Bomi,2746,Klay,39172,Bomi,26818,Maher Public School,,-10.84373,6.78444,3,,Mapping,2013,10,14,30,1,0.033333333,30,4,0.133333333,30,0,0
24314,SCI,AFRO,Western Africa,Liberia,LBR,LR,Bomi,2746,Mecca,39173,Bomi,26818,Mecca Public School,,-10.58037,6.82919,3,,Mapping,2013,10,14,30,3,0.1,30,6,0.2,30,0,0
24315,SCI,AFRO,Western Africa,Liberia,LBR,LR,Bomi,2746,Bopolu,39184,Bomi,26818,Memmeh Town Public School,,-10.5786,6.87286,3,,Mapping,2013,10,14,30,4,0.133333333,30,8,0.266666667,30,1,0.033333333
24316,SCI,AFRO,Western Africa,Liberia,LBR,LR,Bomi,2746,Klay,39172,Bomi,26818,Monnoh Public School,,-10.8123464,6.6651827,1,,Mapping,2013,10,14,30,8,0.266666667,30,4,0.133333333,30,0,0
24317,SCI,AFRO,Western Africa,Liberia,LBR,LR,Bomi,2746,Mecca,39173,Bomi,26818,Muenneh Public School,,-10.6194,6.75074,3,,Mapping,2013,10,14,30,4,0.133333333,30,6,0.2,30,0,0
24318,SCI,AFRO,Western Africa,Liberia,LBR,LR,Bomi,2746,Klay,39172,Bomi,26818,Olivia S. Washington School,,-10.87988,6.64735,3,,Mapping,2013,10,14,30,0,0,30,2,0.066666667,30,0,0
24319,SCI,AFRO,Western Africa,Liberia,LBR,LR,Bomi,2746,Mecca,39173,Bomi,26818,Richard B. Devine,,-10.65405,6.70431,3,,Mapping,2013,10,14,30,3,0.1,30,5,0.166666667,30,0,0
24320,SCI,AFRO,Western Africa,Liberia,LBR,LR,Bomi,2746,Klay,39172,Bomi,26818,S.m. Dowley Public School,,-10.69475,6.65095,3,,Mapping,2013,10,14,30,4,0.133333333,30,5,0.166666667,30,0,0
24321,SCI,AFRO,Western Africa,Liberia,LBR,LR,Bomi,2746,Klay,39172,Bomi,26818,Sass Town Public School,,-10.89024,6.58338,3,,Mapping,2013,10,13,30,4,0.133333333,30,6,0.2,30,3,0.1
24322,SCI,AFRO,Western Africa,Liberia,LBR,LR,Bomi,2746,Klay,39172,Bomi,26818,Suehn Public School,,-10.7066165,6.6181596,1,,Mapping,2013,10,14,30,4,0.133333333,30,7,0.233333333,30,0,0
24323,SCI,AFRO,Western Africa,Liberia,LBR,LR,Bomi,2746,Klay,39172,Bomi,26818,Sumo Town Public School,,-10.72968,6.64182,3,,Mapping,2013,10,14,30,0,0,30,1,0.033333333,30,0,0
24324,SCI,AFRO,Western Africa,Liberia,LBR,LR,Bomi,2746,Klay,39172,Bomi,26818,Tarweh R. William Com. Sch,,-10.81855,6.85334,3,,Mapping,2013,10,14,30,9,0.3,30,9,0.3,30,1,0.033333333
24325,SCI,AFRO,Western Africa,Liberia,LBR,LR,Bomi,2746,Klay,39172,Bomi,26818,Teh Public School,,-10.66815,6.62101,3,,Mapping,2013,10,14,30,6,0.2,30,8,0.266666667,30,0,0
24326,SCI,AFRO,Western Africa,Liberia,LBR,LR,Bomi,2746,Mecca,39173,Bomi,26818,V.k. Yeangbay Public School,,-10.64316,6.73006,3,,Mapping,2013,10,14,30,4,0.133333333,30,6,0.2,30,0,0
24327,SCI,AFRO,Western Africa,Liberia,LBR,LR,Bomi,2746,Klay,39172,Bomi,26818,Vincent Ward Public School,,-10.82079,6.50859,3,,Mapping,2013,10,14,30,4,0.133333333,30,6,0.2,30,0,0
24328,SCI,AFRO,Western Africa,Liberia,LBR,LR,Bomi,2746,Klay,39172,Bomi,26818,Vortor Public School,,-11.03407,6.61784,3,,Mapping,2013,10,14,30,3,0.1,30,5,0.166666667,30,0,0
24329,SCI,AFRO,Western Africa,Liberia,LBR,LR,Bomi,2746,Klay,39172,Bomi,26818,Weajor Public School,,-10.9278,6.6000299,3,,Mapping,2013,10,14,30,3,0.1,30,3,0.1,30,0,0
24330,SCI,AFRO,Western Africa,Liberia,LBR,LR,Bomi,2746,Klay,39172,Bomi,26818,Weakama Public School,,-10.82345,6.84124,3,,Mapping,2013,10,14,30,1,0.033333333,30,2,0.066666667,30,0,0
24331,SCI,AFRO,Western Africa,Liberia,LBR,LR,Bomi,2746,Klay,39172,Bomi,26818,Weamoi Public School,,-10.81732,6.68108,3,,Mapping,2013,10,14,30,6,0.2,30,6,0.2,30,0,0
24332,SCI,AFRO,Western Africa,Liberia,LBR,LR,Bomi,2746,Klay,39172,Bomi,26818,Yormu Public School,,-10.93974,6.61096,3,,Mapping,2013,10,14,30,4,0.133333333,30,3,0.1,30,0,0
24333,SCI,AFRO,Western Africa,Liberia,LBR,LR,Bomi,2746,Klay,39172,Bomi,26818,Zordee Public School,,-10.7823775,6.6766989,1,,Mapping,2013,10,14,30,4,0.133333333,30,5,0.166666667,30,0,0
24334,SCI,AFRO,Western Africa,Liberia,LBR,LR,Bomi,2746,Klay,39172,Bomi,26818,Zuwah Public School,,-10.71175,6.65624,3,,Mapping,2013,10,14,30,9,0.3,30,7,0.233333333,30,0,0
24336,SCI,AFRO,Western Africa,Liberia,LBR,LR,Bong,2747,Jorquelleh,39175,Bong,26819,a g Community,,-9.45948,7.1165,3,,Mapping,2012,10,14,30,14,0.466666667,30,7,0.233333333,30,8,0.266666667
24340,SCI,AFRO,Western Africa,Liberia,LBR,LR,Bong,2747,Suakoko,39180,Bong,26819,Assembly of God Community School,,-9.56379,7.01037,3,,Mapping,2012,10,14,30,8,0.266666667,30,5,0.166666667,30,2,0.066666667
24342,SCI,AFRO,Western Africa,Liberia,LBR,LR,Bong,2747,Todee,39218,Bong,26819,Bandi Community School,,-10.3659444,6.8006111,3,,Mapping,2012,11,14,30,2,0.066666667,30,4,0.133333333,30,1,0.033333333
24346,SCI,AFRO,Western Africa,Liberia,LBR,LR,Bong,2747,Zota,39181,Bong,26819,Beletanai Community School,,-9.43599,7.265354,3,,Mapping,2012,10,14,30,13,0.433333333,30,5,0.166666667,30,9,0.3
24347,SCI,AFRO,Western Africa,Liberia,LBR,LR,Bong,2747,Sanayea,39179,Bong,26819,Beletanda Public School,,-9.79261,7.11383,3,,Mapping,2012,10,14,30,24,0.8,30,13,0.433333333,30,11,0.366666667
24348,SCI,AFRO,Western Africa,Liberia,LBR,LR,Bong,2747,District #3,39189,Bong,26819,Beletania Public School,,-9.42357,6.36411,4,,Mapping,2012,10,14,30,2,0.066666667,30,7,0.233333333,30,0,0
24349,SCI,AFRO,Western Africa,Liberia,LBR,LR,Bong,2747,Panta-Kpa,39177,Bong,26819,Belleganla Public School,,-9.17929,6.89436,3,,Mapping,2012,10,14,30,11,0.366666667,30,9,0.3,30,8,0.266666667
24350,SCI,AFRO,Western Africa,Liberia,LBR,LR,Bong,2747,Fuamah,39174,Bong,26819,Bong Central High,,-10.36052778,6.812777778,3,,Mapping,2012,10,14,30,3,0.1,30,3,0.1,30,1,0.033333333
24351,SCI,AFRO,Western Africa,Liberia,LBR,LR,Bong,2747,Jorquelleh,39175,Bong,26819,Bong Community School,,-9.46993,7.00614,3,,Mapping,2012,10,14,30,4,0.133333333,30,4,0.133333333,30,1,0.033333333
24352,SCI,AFRO,Western Africa,Liberia,LBR,LR,Bong,2747,Salala,39178,Bong,26819,Botoe Barclay Emementary School,,-9.9890833,6.8775833,3,,Mapping,2012,11,14,30,3,0.1,30,0,0,30,1,0.033333333
24353,SCI,AFRO,Western Africa,Liberia,LBR,LR,Bong,2747,Fuamah,39174,Bong,26819,Botoe Barclay Public School,,-10.36263888,6.80797222,3,,Mapping,2012,10,14,30,3,0.1,30,2,0.066666667,30,0,0
24354,SCI,AFRO,Western Africa,Liberia,LBR,LR,Bong,2747,Salala,39178,Bong,26819,Boyea Public School,,-10.00349,6.92918,3,,Mapping,2012,10,14,30,13,0.433333333,30,9,0.3,29,10,0.344827586
24355,SCI,AFRO,Western Africa,Liberia,LBR,LR,Bong,2747,Jorquelleh,39175,Bong,26819,Cammue Donkpoh Public School,,-9.4575596,6.8318,3,,Mapping,2012,10,14,30,7,0.233333333,30,13,0.433333333,30,9,0.3
24359,SCI,AFRO,Western Africa,Liberia,LBR,LR,Bong,2747,Panta-Kpa,39177,Bong,26819,Charlie K. Too Elem. & Jr. High,,-9.24275,6.85224,3,,Mapping,2012,10,14,30,12,0.4,30,8,0.266666667,30,9,0.3
24360,SCI,AFRO,Western Africa,Liberia,LBR,LR,Bong,2747,Jorquelleh,39175,Bong,26819,Chief Conpound Public School,,-9.47972,6.97491,3,,Mapping,2012,10,14,30,10,0.333333333,30,5,0.166666667,30,0,0
24361,SCI,AFRO,Western Africa,Liberia,LBR,LR,Bong,2747,Fuamah,39174,Bong,26819,Christain T. Norma Elementary School,,-10.36047,6.812917,3,,Mapping,2012,11,14,30,1,0.033333333,30,3,0.1,30,1,0.033333333
24362,SCI,AFRO,Western Africa,Liberia,LBR,LR,Bong,2747,Jorquelleh,39175,Bong,26819,Christian Delplan Bible Sch,,-9.44534,7.18847,3,,Mapping,2012,10,14,29,9,0.310344828,29,6,0.206896552,29,2,0.068965517
24363,SCI,AFRO,Western Africa,Liberia,LBR,LR,Bong,2747,Salala,39178,Bong,26819,Christian Foundation Public School,,-9.938583,6.808528,3,,Mapping,2012,10,14,29,2,0.068965517,30,2,0.066666667,30,0,0
24367,SCI,AFRO,Western Africa,Liberia,LBR,LR,Bong,2747,Suakoko,39180,Bong,26819,Cuttington Campus,,-9.5538568,7.0404482,1,,Mapping,2012,10,14,29,13,0.448275862,29,10,0.344827586,29,3,0.103448276
24368,SCI,AFRO,Western Africa,Liberia,LBR,LR,Bong,2747,Jorquelleh,39175,Bong,26819,D. T. Woah-Tee,,-9.40309,7.13281,3,,Mapping,2012,10,14,29,17,0.586206897,29,19,0.655172414,29,9,0.310344828
24369,SCI,AFRO,Western Africa,Liberia,LBR,LR,Bong,2747,Fuamah,39174,Bong,26819,D.elaine Baptist School,,-10.36339,6.808139,3,,Mapping,2012,11,14,30,4,0.133333333,30,5,0.166666667,30,2,0.066666667
24370,SCI,AFRO,Western Africa,Liberia,LBR,LR,Bong,2747,Gbarma,39185,Bong,26819,Dankpansue Public School,,-10.51191,7.31321,4,,Mapping,2012,10,14,30,18,0.6,30,15,0.5,30,6,0.2
24371,SCI,AFRO,Western Africa,Liberia,LBR,LR,Bong,2747,Panta-Kpa,39177,Bong,26819,David F. Bee Elem.,,-9.2211,7.08896,3,,Mapping,2012,10,13,30,12,0.4,30,6,0.2,30,3,0.1
24372,SCI,AFRO,Western Africa,Liberia,LBR,LR,Bong,2747,Fuamah,39174,Bong,26819,Dobli Island Elementary School,,-10.3727778,6.9069444,1,,Mapping,2012,11,14,30,9,0.3,30,5,0.166666667,30,3,0.1
24373,SCI,AFRO,Western Africa,Liberia,LBR,LR,Bong,2747,Salala,39178,Bong,26819,Donfah Elem. School,,-9.8208399,6.84653,3,,Mapping,2012,10,14,30,14,0.466666667,30,10,0.333333333,30,8,0.266666667
24374,SCI,AFRO,Western Africa,Liberia,LBR,LR,Bong,2747,Jorquelleh,39175,Bong,26819,Dorothy Cooper Kg & Primary School,,-9.47837,7.00505,3,,Mapping,2012,10,14,30,8,0.266666667,30,5,0.166666667,30,0,0
24376,SCI,AFRO,Western Africa,Liberia,LBR,LR,Bong,2747,Salala,39178,Bong,26819,E.j.yancy Public School,,-9.936333,6.816944,3,,Mapping,2012,10,14,30,2,0.066666667,30,5,0.166666667,30,3,0.1
24377,SCI,AFRO,Western Africa,Liberia,LBR,LR,Bong,2747,Kokoyah,39176,Bong,26819,Faeyawoi Community Public School,,-9.36119,6.68567,3,,Mapping,2012,10,14,30,12,0.4,30,8,0.266666667,30,9,0.3
24378,SCI,AFRO,Western Africa,Liberia,LBR,LR,Bong,2747,Zorzor,39208,Bong,26819,Faith Community Ag Elem. & Jr. High School,,-9.57888,7.98592,4,,Mapping,2012,10,14,30,15,0.5,30,12,0.4,30,6,0.2
24382,SCI,AFRO,Western Africa,Liberia,LBR,LR,Bong,2747,Panta-Kpa,39177,Bong,26819,Fantee Public School,,-9.2363,6.80359,3,,Mapping,2012,10,14,29,17,0.586206897,29,6,0.206896552,29,7,0.24137931
24383,SCI,AFRO,Western Africa,Liberia,LBR,LR,Bong,2747,Fuamah,39174,Bong,26819,Fuamah Industrial Academy,,-10.2151578,6.9391934,1,,Mapping,2012,11,14,30,4,0.133333333,30,6,0.2,30,3,0.1
24384,SCI,AFRO,Western Africa,Liberia,LBR,LR,Bong,2747,Suakoko,39180,Bong,26819,G. Tolokpalai Public School,,-9.65694,6.80356,3,,Mapping,2012,10,13,30,17,0.566666667,30,16,0.533333333,30,17,0.566666667
24388,SCI,AFRO,Western Africa,Liberia,LBR,LR,Bong,2747,Suakoko,39180,Bong,26819,Gaita Public School,,-9.67452,6.88829,3,,Mapping,2012,11,14,30,16,0.533333333,30,11,0.366666667,30,9,0.3
24389,SCI,AFRO,Western Africa,Liberia,LBR,LR,Bong,2747,Salala,39178,Bong,26819,Galima G. Baysah Elementary School,,-10.01806,6.767583,3,,Mapping,2012,10,14,30,2,0.066666667,30,1,0.033333333,30,0,0
24390,SCI,AFRO,Western Africa,Liberia,LBR,LR,Bong,2747,District #3,39189,Bong,26819,Gargarblee Public School,,-9.37187,6.60387,3,,Mapping,2012,10,14,30,12,0.4,30,7,0.233333333,30,12,0.4
24391,SCI,AFRO,Western Africa,Liberia,LBR,LR,Bong,2747,Suakoko,39180,Bong,26819,Garmue Public School,,-9.5761,6.943,3,,Mapping,2012,10,12,30,12,0.4,30,7,0.233333333,30,6,0.2
24392,SCI,AFRO,Western Africa,Liberia,LBR,LR,Bong,2747,Suakoko,39180,Bong,26819,Garyea Public School,,-9.6769304,6.74893,3,,Mapping,2012,10,14,30,12,0.4,30,8,0.266666667,30,2,0.066666667
24393,SCI,AFRO,Western Africa,Liberia,LBR,LR,Bong,2747,Sanayea,39179,Bong,26819,Gbanbay Giddings Public School,,-10.05778,6.99234,3,,Mapping,2012,10,14,30,10,0.333333333,30,8,0.266666667,30,4,0.133333333
24394,SCI,AFRO,Western Africa,Liberia,LBR,LR,Bong,2747,Jorquelleh,39175,Bong,26819,Gbarney Public Sch,,-9.4377,7.08718,3,,Mapping,2012,10,14,30,18,0.6,30,8,0.266666667,30,6,0.2
24395,SCI,AFRO,Western Africa,Liberia,LBR,LR,Bong,2747,Kokoyah,39176,Bong,26819,Gbawehn Mission,,-9.3996496,6.62641,3,,Mapping,2012,10,14,29,7,0.24137931,29,6,0.206896552,29,8,0.275862069
24396,SCI,AFRO,Western Africa,Liberia,LBR,LR,Bong,2747,Jorquelleh,39175,Bong,26819,Gbelekpalai Public School,,-9.46459,7.03987,3,,Mapping,2012,10,14,30,14,0.466666667,30,7,0.233333333,30,5,0.166666667
24397,SCI,AFRO,Western Africa,Liberia,LBR,LR,Bong,2747,Jorquelleh,39175,Bong,26819,Gbenequelleh Elem/Jr High School,,-9.46073,6.74131,3,,Mapping,2012,10,14,30,9,0.3,30,4,0.133333333,30,8,0.266666667
24398,SCI,AFRO,Western Africa,Liberia,LBR,LR,Bong,2747,Jorquelleh,39175,Bong,26819,Gbenyanyea Public School,,-9.4430103,6.80445,3,,Mapping,2012,10,14,22,16,0.727272727,22,6,0.272727273,22,9,0.409090909
24399,SCI,AFRO,Western Africa,Liberia,LBR,LR,Bong,2747,Panta-Kpa,39177,Bong,26819,Gboawuta Public School,,-9.2299604,6.97616,3,,Mapping,2012,10,14,30,14,0.466666667,30,11,0.366666667,30,5,0.166666667
24400,SCI,AFRO,Western Africa,Liberia,LBR,LR,Bong,2747,Sanayea,39179,Bong,26819,Gbogbota Pub. School,,-9.8611803,7.08077,3,,Mapping,2012,10,15,30,17,0.566666667,30,9,0.3,30,9,0.3
24401,SCI,AFRO,Western Africa,Liberia,LBR,LR,Bong,2747,Zota,39181,Bong,26819,Gbokew Kollie Public Sch.,,-9.3533335,7.2611108,3,,Mapping,2012,10,14,29,13,0.448275862,29,11,0.379310345,28,4,0.142857143
24402,SCI,AFRO,Western Africa,Liberia,LBR,LR,Bong,2747,Sanayea,39179,Bong,26819,Gbonota Public School,,-9.780727,7.118689,1,,Mapping,2012,10,14,30,15,0.5,30,11,0.366666667,30,8,0.266666667
24403,SCI,AFRO,Western Africa,Liberia,LBR,LR,Bong,2747,Suakoko,39180,Bong,26819,Gbornokalasue Elem. School,,-9.64026,7.00731,3,,Mapping,2012,10,14,30,8,0.266666667,30,11,0.366666667,30,5,0.166666667
24404,SCI,AFRO,Western Africa,Liberia,LBR,LR,Bong,2747,Jorquelleh,39175,Bong,26819,Geita Public Elementary,,-9.4628,7.14768,3,,Mapping,2012,10,14,30,13,0.433333333,30,10,0.333333333,30,5,0.166666667
24405,SCI,AFRO,Western Africa,Liberia,LBR,LR,Bong,2747,Jorquelleh,39175,Bong,26819,Gongor Town Public School,,-9.52654,6.72795,3,,Mapping,2012,10,14,30,14,0.466666667,30,7,0.233333333,30,9,0.3
24406,SCI,AFRO,Western Africa,Liberia,LBR,LR,Bong,2747,Jorquelleh,39175,Bong,26819,Gonkorjuah Public,,-9.39998,7.15125,3,,Mapping,2012,10,14,30,14,0.466666667,30,8,0.266666667,30,8,0.266666667
24407,SCI,AFRO,Western Africa,Liberia,LBR,LR,Bong,2747,Suakoko,39180,Bong,26819,Good News Christain Community School,,-9.75467,6.88404,3,,Mapping,2012,10,14,30,10,0.333333333,30,9,0.3,30,3,0.1
24409,SCI,AFRO,Western Africa,Liberia,LBR,LR,Bong,2747,Jorquelleh,39175,Bong,26819,Gueyanta Public School,,-9.5111198,6.85673,3,,Mapping,2012,10,14,30,20,0.666666667,30,9,0.3,30,12,0.4
24410,SCI,AFRO,Western Africa,Liberia,LBR,LR,Bong,2747,Jorquelleh,39175,Bong,26819,Gwah Mu School,,-9.39163,6.72779,3,,Mapping,2012,10,14,29,8,0.275862069,29,4,0.137931034,29,7,0.24137931
24411,SCI,AFRO,Western Africa,Liberia,LBR,LR,Bong,2747,Salala,39178,Bong,26819,Hope of Glory School,,-9.937361,6.814028,3,,Mapping,2012,10,14,30,1,0.033333333,30,4,0.133333333,30,1,0.033333333
24412,SCI,AFRO,Western Africa,Liberia,LBR,LR,Bong,2747,Panta-Kpa,39177,Bong,26819,James Samuel Mitton,,-9.22222,6.93058,3,,Mapping,2012,10,14,30,19,0.633333333,30,8,0.266666667,30,8,0.266666667
24415,SCI,AFRO,Western Africa,Liberia,LBR,LR,Bong,2747,Bokomu,39183,Bong,26819,Jarkai Comm Sch. Zota,,-9.94992,7.22699,4,,Mapping,2012,10,13,29,16,0.551724138,29,5,0.172413793,29,7,0.24137931
24416,SCI,AFRO,Western Africa,Liberia,LBR,LR,Bong,2747,Bopolu,39184,Bong,26819,Jarkpa-Ta Pub. School,,-10.47212,7.04032,4,,Mapping,2012,10,14,30,16,0.533333333,30,10,0.333333333,30,6,0.2
24418,SCI,AFRO,Western Africa,Liberia,LBR,LR,Bong,2747,Panta-Kpa,39177,Bong,26819,Jarmue Community School,,-9.19685,7.06065,3,,Mapping,2012,10,14,30,7,0.233333333,30,6,0.2,29,5,0.172413793
24422,SCI,AFRO,Western Africa,Liberia,LBR,LR,Bong,2747,Panta-Kpa,39177,Bong,26819,Jinniepeleta Public School,,-9.3508,7.00896,3,,Mapping,2012,10,14,30,11,0.366666667,30,11,0.366666667,30,8,0.266666667
24423,SCI,AFRO,Western Africa,Liberia,LBR,LR,Bong,2747,Suakoko,39180,Bong,26819,John P. Mitchell,,-9.63593,6.94058,3,,Mapping,2012,10,14,30,13,0.433333333,30,13,0.433333333,30,10,0.333333333
24424,SCI,AFRO,Western Africa,Liberia,LBR,LR,Bong,2747,Salala,39178,Bong,26819,Johnson Baysah Elementary,,-9.942611,6.821389,3,,Mapping,2012,10,14,30,2,0.066666667,30,0,0,30,0,0
24425,SCI,AFRO,Western Africa,Liberia,LBR,LR,Bong,2747,Zota,39181,Bong,26819,Jonkai Elemenary School,,-9.39099,7.24654,3,,Mapping,2012,10,14,29,6,0.206896552,30,10,0.333333333,30,5,0.166666667
24426,SCI,AFRO,Western Africa,Liberia,LBR,LR,Bong,2747,Panta-Kpa,39177,Bong,26819,Kawai Public School,,-9.24924,7.0136,3,,Mapping,2012,10,14,30,12,0.4,29,8,0.275862069,29,5,0.172413793
24428,SCI,AFRO,Western Africa,Liberia,LBR,LR,Bong,2747,Sanayea,39179,Bong,26819,Kelebei Public School,,-10.09049,7.01474,3,,Mapping,2012,10,13,30,15,0.5,30,9,0.3,30,6,0.2
24431,SCI,AFRO,Western Africa,Liberia,LBR,LR,Bong,2747,Panta-Kpa,39177,Bong,26819,Kgs. Kapu Elem. School (Public,,-9.28414,7.03945,3,,Mapping,2012,10,14,30,6,0.2,30,9,0.3,30,5,0.166666667
24432,SCI,AFRO,Western Africa,Liberia,LBR,LR,Bong,2747,Jorquelleh,39175,Bong,26819,Kilikpahn Public School,,-9.33208,6.87267,3,,Mapping,2012,10,13,30,15,0.5,30,7,0.233333333,30,2,0.066666667
24433,SCI,AFRO,Western Africa,Liberia,LBR,LR,Bong,2747,Jorquelleh,39175,Bong,26819,Kollah Worlupue Public School,,-9.37506,6.88607,3,,Mapping,2012,10,14,29,15,0.517241379,28,8,0.285714286,28,3,0.107142857
24434,SCI,AFRO,Western Africa,Liberia,LBR,LR,Bong,2747,Salala,39178,Bong,26819,Kolleh Gwee Elementary School,,-9.974333,6.78075,3,,Mapping,2012,10,14,30,0,0,30,4,0.133333333,29,5,0.172413793
24435,SCI,AFRO,Western Africa,Liberia,LBR,LR,Bong,2747,Salayea,39205,Bong,26819,Kollieta Pub. School,,-9.4989204,7.3339,3,,Mapping,2012,10,14,29,15,0.517241379,29,6,0.206896552,29,7,0.24137931
24436,SCI,AFRO,Western Africa,Liberia,LBR,LR,Bong,2747,Jorquelleh,39175,Bong,26819,Kpai Public School,,-9.39998,7.15123,3,,Mapping,2012,11,14,29,17,0.586206897,29,13,0.448275862,29,10,0.344827586
24437,SCI,AFRO,Western Africa,Liberia,LBR,LR,Bong,2747,Fuamah,39174,Bong,26819,Kpaingbah Town Public School,,-10.258361,6.90025,3,,Mapping,2012,11,14,30,3,0.1,30,3,0.1,30,0,0
24438,SCI,AFRO,Western Africa,Liberia,LBR,LR,Bong,2747,Jorquelleh,39175,Bong,26819,Kpanyah Public School,,-9.3253,7.08021,3,,Mapping,2012,10,14,30,21,0.7,30,14,0.466666667,30,8,0.266666667
24439,SCI,AFRO,Western Africa,Liberia,LBR,LR,Bong,2747,Salala,39178,Bong,26819,Kpatolee Public School,,-10.04675,6.765805,3,,Mapping,2012,10,14,30,1,0.033333333,30,2,0.066666667,30,1,0.033333333
24440,SCI,AFRO,Western Africa,Liberia,LBR,LR,Bong,2747,Zota,39181,Bong,26819,Kpoloyah Public School,,-9.33757,7.17042,3,,Mapping,2012,10,14,29,20,0.689655172,29,10,0.344827586,29,8,0.275862069
24444,SCI,AFRO,Western Africa,Liberia,LBR,LR,Bong,2747,Sanayea,39179,Bong,26819,Krister Marie Jensen Lutheran School,,-9.97998,6.97532,3,,Mapping,2012,10,14,30,14,0.466666667,30,14,0.466666667,30,7,0.233333333
24445,SCI,AFRO,Western Africa,Liberia,LBR,LR,Bong,2747,Jorquelleh,39175,Bong,26819,L.a.g. Foundation Connunity,,-9.4646902,6.99506,3,,Mapping,2012,10,14,28,8,0.285714286,28,1,0.035714286,27,0,0
24447,SCI,AFRO,Western Africa,Liberia,LBR,LR,Bong,2747,Fuamah,39174,Bong,26819,Lawana Public School,,-10.36646,6.810821,3,,Mapping,2012,11,14,30,0,0,30,1,0.033333333,30,1,0.033333333
24448,SCI,AFRO,Western Africa,Liberia,LBR,LR,Bong,2747,Sanayea,39179,Bong,26819,M.j. Ahmadiyya School,,-9.9779797,6.98033,3,,Mapping,2012,10,14,30,13,0.433333333,30,8,0.266666667,30,7,0.233333333
24449,SCI,AFRO,Western Africa,Liberia,LBR,LR,Bong,2747,Suakoko,39180,Bong,26819,Mamadi Public School,,-9.79111,6.85035,3,,Mapping,2012,10,14,30,14,0.466666667,30,11,0.366666667,30,4,0.133333333
24450,SCI,AFRO,Western Africa,Liberia,LBR,LR,Bong,2747,Suakoko,39180,Bong,26819,Margret Kenedy Elem. & Jr. High School,,-9.56988,7.01486,3,,Mapping,2012,10,14,30,14,0.466666667,30,6,0.2,30,6,0.2
24451,SCI,AFRO,Western Africa,Liberia,LBR,LR,Bong,2747,Salala,39178,Bong,26819,Marthal Tubman Public School,,-10.10719,6.749889,3,,Mapping,2012,10,14,30,1,0.033333333,30,3,0.1,30,0,0
24452,SCI,AFRO,Western Africa,Liberia,LBR,LR,Bong,2747,Todee,39218,Bong,26819,Martin Luther King Memorial School,,-10.44266,6.794,3,,Mapping,2012,11,14,30,4,0.133333333,30,3,0.1,30,0,0
24453,SCI,AFRO,Western Africa,Liberia,LBR,LR,Bong,2747,Fuamah,39174,Bong,26819,Mawah Public School,,-10.42442,6.851972,3,,Mapping,2012,11,14,30,3,0.1,30,7,0.233333333,30,1,0.033333333
24455,SCI,AFRO,Western Africa,Liberia,LBR,LR,Bong,2747,Jorquelleh,39175,Bong,26819,Metee Klibo Commuinty School,,-9.4868002,7.11201,3,,Mapping,2012,10,14,30,13,0.433333333,30,7,0.233333333,30,7,0.233333333
24457,SCI,AFRO,Western Africa,Liberia,LBR,LR,Bong,2747,Suakoko,39180,Bong,26819,Morris Town Public School,,-9.52687,6.76982,3,,Mapping,2012,10,14,30,21,0.7,30,9,0.3,30,8,0.266666667
24458,SCI,AFRO,Western Africa,Liberia,LBR,LR,Bong,2747,Jorquelleh,39175,Bong,26819,Mother Louise M. Neufville Episcopal,,-9.4548597,7.00212,3,,Mapping,2012,10,14,30,9,0.3,30,4,0.133333333,30,9,0.3
24459,SCI,AFRO,Western Africa,Liberia,LBR,LR,Bong,2747,Fuamah,39174,Bong,26819,Nancy B. Doe Public School,,-10.36064,6.804333,3,,Mapping,2012,10,14,30,10,0.333333333,30,7,0.233333333,30,0,0
24460,SCI,AFRO,Western Africa,Liberia,LBR,LR,Bong,2747,Bopolu,39184,Bong,26819,Napuyeama Public School,,-10.39084,7.26456,4,,Mapping,2012,10,15,30,18,0.6,30,12,0.4,30,7,0.233333333
24461,SCI,AFRO,Western Africa,Liberia,LBR,LR,Bong,2747,Fuamah,39174,Bong,26819,Neiporlor Kollieta Public School,,-10.28081,6.831361,3,,Mapping,2012,10,14,30,1,0.033333333,30,2,0.066666667,30,0,0
24462,SCI,AFRO,Western Africa,Liberia,LBR,LR,Bong,2747,Suakoko,39180,Bong,26819,New Life Foundation Elem. School of Bethel,,-9.55627,7.0229,3,,Mapping,2012,10,14,30,10,0.333333333,30,4,0.133333333,29,7,0.24137931
24463,SCI,AFRO,Western Africa,Liberia,LBR,LR,Bong,2747,Salala,39178,Bong,26819,New Macedonian Elementary School,,-9.948611,6.782194,3,,Mapping,2012,10,19,30,1,0.033333333,30,1,0.033333333,30,0,0
24464,SCI,AFRO,Western Africa,Liberia,LBR,LR,Bong,2747,Salala,39178,Bong,26819,New Totota Public School,,-9.9381257,6.8154038,1,,Mapping,2012,10,14,30,1,0.033333333,30,1,0.033333333,30,0,0
24465,SCI,AFRO,Western Africa,Liberia,LBR,LR,Bong,2747,Todee,39218,Bong,26819,Nuinye Public School,,-10.46867,6.816027,3,,Mapping,2012,11,14,30,4,0.133333333,30,1,0.033333333,29,1,0.034482759
24466,SCI,AFRO,Western Africa,Liberia,LBR,LR,Bong,2747,Sanayea,39179,Bong,26819,Nyain Public School,,-9.79885,7.08507,3,,Mapping,2012,10,14,30,26,0.866666667,30,11,0.366666667,30,9,0.3
24467,SCI,AFRO,Western Africa,Liberia,LBR,LR,Bong,2747,Zorzor,39208,Bong,26819,Nyaita Community,,-9.54016,7.95003,4,,Mapping,2012,10,14,30,17,0.566666667,30,13,0.433333333,30,12,0.4
24468,SCI,AFRO,Western Africa,Liberia,LBR,LR,Bong,2747,Panta-Kpa,39177,Bong,26819,Nyakoi Bee Elem. Jr. High,,-9.28586,7.00357,3,,Mapping,2012,10,14,30,14,0.466666667,30,9,0.3,30,9,0.3
24469,SCI,AFRO,Western Africa,Liberia,LBR,LR,Bong,2747,Panta-Kpa,39177,Bong,26819,Nyan Tarkulah Public School,,-9.1994896,6.92278,3,,Mapping,2012,10,14,27,9,0.333333333,27,4,0.148148148,27,4,0.148148148
24470,SCI,AFRO,Western Africa,Liberia,LBR,LR,Bong,2747,Todee,39218,Bong,26819,Nyean Lutheran School,,-10.36281,6.800417,3,,Mapping,2012,10,14,30,4,0.133333333,30,1,0.033333333,30,2,0.066666667
24471,SCI,AFRO,Western Africa,Liberia,LBR,LR,Bong,2747,Panta-Kpa,39177,Bong,26819,Nyofarkollie Elem. Jr. & Sr. High School,,-9.18605,6.81643,3,,Mapping,2012,10,14,30,12,0.4,30,10,0.333333333,30,4,0.133333333
24475,SCI,AFRO,Western Africa,Liberia,LBR,LR,Bong,2747,Suakoko,39180,Bong,26819,Pengia Public School,,-9.66387,6.85381,3,,Mapping,2012,10,14,30,20,0.666666667,30,10,0.333333333,30,10,0.333333333
24476,SCI,AFRO,Western Africa,Liberia,LBR,LR,Bong,2747,Fuamah,39174,Bong,26819,Pentecostal  Public  School,,-10.36088888,6.81508333,3,,Mapping,2012,11,14,30,7,0.233333333,30,6,0.2,30,3,0.1
24477,SCI,AFRO,Western Africa,Liberia,LBR,LR,Bong,2747,Fuamah,39174,Bong,26819,Popota Community School,,-10.3033333,6.8793333,3,,Mapping,2012,11,14,30,4,0.133333333,30,5,0.166666667,30,0,0
24478,SCI,AFRO,Western Africa,Liberia,LBR,LR,Bong,2747,Jorquelleh,39175,Bong,26819,Quayar Kulah Public School,,-9.48394,6.70119,3,,Mapping,2012,10,14,30,11,0.366666667,30,6,0.2,29,6,0.206896552
24479,SCI,AFRO,Western Africa,Liberia,LBR,LR,Bong,2747,Panta-Kpa,39177,Bong,26819,Quayee Public,,-9.2874002,6.99997,3,,Mapping,2012,10,14,30,7,0.233333333,30,7,0.233333333,30,3,0.1
24480,SCI,AFRO,Western Africa,Liberia,LBR,LR,Bong,2747,Salala,39178,Bong,26819,Quelimin Toto Public School,,-9.954,6.782778,3,,Mapping,2012,10,14,30,1,0.033333333,30,2,0.066666667,30,1,0.033333333
24481,SCI,AFRO,Western Africa,Liberia,LBR,LR,Bong,2747,Jorquelleh,39175,Bong,26819,Roots Community,,-9.48885,7.01128,3,,Mapping,2012,10,14,30,6,0.2,30,0,0,30,0,0
24482,SCI,AFRO,Western Africa,Liberia,LBR,LR,Bong,2747,Salala,39178,Bong,26819,Safe Home Christian School,,-10.03536,6.763194,3,,Mapping,2012,10,14,29,2,0.068965517,30,4,0.133333333,30,0,0
24483,SCI,AFRO,Western Africa,Liberia,LBR,LR,Bong,2747,Suakoko,39180,Bong,26819,Salvation Community School,,-9.56673,7.01396,3,,Mapping,2012,10,14,30,13,0.433333333,30,5,0.166666667,30,10,0.333333333
24484,SCI,AFRO,Western Africa,Liberia,LBR,LR,Bong,2747,Saclepea-Mah,39220,Bong,26819,Samuel B. Cooper Elem & Jr High School,,-9.16968,7.06386,3,,Mapping,2012,10,14,29,9,0.310344828,29,5,0.172413793,29,5,0.172413793
24485,SCI,AFRO,Western Africa,Liberia,LBR,LR,Bong,2747,Salala,39178,Bong,26819,Sandary Elementary School,,-9.94525,6.807917,3,,Mapping,2012,10,14,30,1,0.033333333,29,3,0.103448276,30,1,0.033333333
24486,SCI,AFRO,Western Africa,Liberia,LBR,LR,Bong,2747,Sanayea,39179,Bong,26819,Sanoyea Public School,,-9.983442,6.978884,1,,Mapping,2012,10,14,30,17,0.566666667,30,10,0.333333333,30,7,0.233333333
24487,SCI,AFRO,Western Africa,Liberia,LBR,LR,Bong,2747,Salala,39178,Bong,26819,Santa Public School,,-9.962417,6.921055,3,,Mapping,2012,10,14,30,1,0.033333333,30,2,0.066666667,30,0,0
24488,SCI,AFRO,Western Africa,Liberia,LBR,LR,Bong,2747,District #3,39189,Bong,26819,Sayewhen Town Public School,,-9.62652,6.35708,4,,Mapping,2012,10,14,30,12,0.4,30,5,0.166666667,30,10,0.333333333
24489,SCI,AFRO,Western Africa,Liberia,LBR,LR,Bong,2747,Salala,39178,Bong,26819,Saysayla Public School,,-10.108333,6.7458329,3,,Mapping,2012,10,14,30,2,0.066666667,30,4,0.133333333,30,1,0.033333333
24493,SCI,AFRO,Western Africa,Liberia,LBR,LR,Bong,2747,Zota,39181,Bong,26819,Sianneh Ta Public School,,-9.4866505,7.28369,3,,Mapping,2012,10,14,30,12,0.4,30,8,0.266666667,30,9,0.3
24494,SCI,AFRO,Western Africa,Liberia,LBR,LR,Bong,2747,Jorquelleh,39175,Bong,26819,Sis Ruth Memorial Elem. Sch.,,-9.45972,6.9982,3,,Mapping,2012,10,15,30,9,0.3,30,6,0.2,30,2,0.066666667
24495,SCI,AFRO,Western Africa,Liberia,LBR,LR,Bong,2747,Jorquelleh,39175,Bong,26819,St. Mark Lutheran High,,-9.46997,7.00115,3,,Mapping,2012,10,14,28,4,0.142857143,27,2,0.074074074,27,0,0
24496,SCI,AFRO,Western Africa,Liberia,LBR,LR,Bong,2747,Jorquelleh,39175,Bong,26819,St. Matthew Academy,,-9.46733,6.98493,3,,Mapping,2012,10,14,26,7,0.269230769,26,1,0.038461538,26,1,0.038461538
24497,SCI,AFRO,Western Africa,Liberia,LBR,LR,Bong,2747,Fuamah,39174,Bong,26819,St. Paul Catholic School,,-10.36330555,6.81747222,3,,Mapping,2012,11,14,30,1,0.033333333,30,3,0.1,30,1,0.033333333
24498,SCI,AFRO,Western Africa,Liberia,LBR,LR,Bong,2747,Suakoko,39180,Bong,26819,Suakoko Rehab Elementary,,-9.5814039,6.989988,1,,Mapping,2012,10,14,30,9,0.3,30,16,0.533333333,30,7,0.233333333
24500,SCI,AFRO,Western Africa,Liberia,LBR,LR,Bong,2747,Suakoko,39180,Bong,26819,Tailor Ums,,-9.64891,6.82916,3,,Mapping,2012,10,14,30,13,0.433333333,30,8,0.266666667,30,4,0.133333333
24501,SCI,AFRO,Western Africa,Liberia,LBR,LR,Bong,2747,Panta-Kpa,39177,Bong,26819,Tassah Public School,,-9.29365,6.9248,3,,Mapping,2012,10,14,30,13,0.433333333,30,8,0.266666667,30,6,0.2
24503,SCI,AFRO,Western Africa,Liberia,LBR,LR,Bong,2747,Panta-Kpa,39177,Bong,26819,Tomato Camp Public School,,-9.255827,7.043417,3,,Mapping,2012,10,14,30,14,0.466666667,30,6,0.2,30,3,0.1
24504,SCI,AFRO,Western Africa,Liberia,LBR,LR,Bong,2747,Kokoyah,39176,Bong,26819,Tukpatiblee Pub. School,,-9.43034,6.59018,3,,Mapping,2012,11,14,30,13,0.433333333,30,7,0.233333333,30,9,0.3
24505,SCI,AFRO,Western Africa,Liberia,LBR,LR,Bong,2747,Salala,39178,Bong,26819,Upper Room Christian Academy,,-9.943667,6.808555,3,,Mapping,2012,10,14,30,2,0.066666667,30,2,0.066666667,30,0,0
24506,SCI,AFRO,Western Africa,Liberia,LBR,LR,Bong,2747,Salala,39178,Bong,26819,Vision Community School,,-10.03731,6.764444,3,,Mapping,2012,10,14,30,1,0.033333333,30,1,0.033333333,30,1,0.033333333
24507,SCI,AFRO,Western Africa,Liberia,LBR,LR,Bong,2747,Bopolu,39184,Bong,26819,Volomeni Public School,,-10.48675,7.02151,4,,Mapping,2012,10,13,30,17,0.566666667,30,13,0.433333333,29,12,0.413793103
24508,SCI,AFRO,Western Africa,Liberia,LBR,LR,Bong,2747,Zota,39181,Bong,26819,W. R. Tolbert Elm /Jr High School,,-9.5117397,7.31216,3,,Mapping,2012,10,14,30,12,0.4,30,10,0.333333333,30,6,0.2
24509,SCI,AFRO,Western Africa,Liberia,LBR,LR,Bong,2747,Salala,39178,Bong,26819,Wacap Public School,,-9.9208333,6.7578333,3,,Mapping,2012,10,14,30,0,0,30,3,0.1,30,1,0.033333333
24510,SCI,AFRO,Western Africa,Liberia,LBR,LR,Bong,2747,Sanayea,39179,Bong,26819,Waingue Public School,,-10.00698,7.00473,3,,Mapping,2012,10,14,30,13,0.433333333,30,9,0.3,30,6,0.2
24512,SCI,AFRO,Western Africa,Liberia,LBR,LR,Bong,2747,Sanayea,39179,Bong,26819,Waymue Public School,,-9.74149,7.08689,3,,Mapping,2012,10,13,30,19,0.633333333,30,14,0.466666667,30,9,0.3
24513,SCI,AFRO,Western Africa,Liberia,LBR,LR,Bong,2747,Sanayea,39179,Bong,26819,Wenkai Elem. Public,,-9.78536,7.11512,3,,Mapping,2012,10,13,29,18,0.620689655,29,13,0.448275862,29,7,0.24137931
24514,SCI,AFRO,Western Africa,Liberia,LBR,LR,Bong,2747,Sanayea,39179,Bong,26819,Wenniata Public School,,-10.0234,6.89497,3,,Mapping,2012,10,14,30,17,0.566666667,30,11,0.366666667,30,11,0.366666667
24515,SCI,AFRO,Western Africa,Liberia,LBR,LR,Bong,2747,Kokoyah,39176,Bong,26819,Wesseh Gardea Public School,,-9.3761997,6.65486,3,,Mapping,2012,10,14,30,10,0.333333333,30,6,0.2,30,6,0.2
24516,SCI,AFRO,Western Africa,Liberia,LBR,LR,Bong,2747,Kokoyah,39176,Bong,26819,Wetea Public School,,-9.4235,6.65285,3,,Mapping,2012,10,14,29,6,0.206896552,29,2,0.068965517,29,6,0.206896552
24517,SCI,AFRO,Western Africa,Liberia,LBR,LR,Bong,2747,Fuamah,39174,Bong,26819,Willayta Public School,,-10.3246944,6.8556388,3,,Mapping,2012,11,14,29,5,0.172413793,29,4,0.137931034,29,0,0
24518,SCI,AFRO,Western Africa,Liberia,LBR,LR,Bong,2747,Salala,39178,Bong,26819,William V.s. Tubman Elem. & Jr. High School,,-9.84356,6.83998,3,,Mapping,2012,10,14,30,14,0.466666667,30,9,0.3,30,11,0.366666667
24519,SCI,AFRO,Western Africa,Liberia,LBR,LR,Bong,2747,Fuamah,39174,Bong,26819,World Wide Mission School,,-10.36575,6.808389,3,,Mapping,2012,10,14,30,6,0.2,30,7,0.233333333,30,2,0.066666667
24520,SCI,AFRO,Western Africa,Liberia,LBR,LR,Bong,2747,Sanayea,39179,Bong,26819,Worlorsue Public School,,-9.88398,7.1108,3,,Mapping,2012,10,14,30,14,0.466666667,30,10,0.333333333,30,7,0.233333333
24521,SCI,AFRO,Western Africa,Liberia,LBR,LR,Bong,2747,Tappita,39222,Bong,26819,Wulapor Wula,,-9.01481,6.57008,4,,Mapping,2012,10,14,30,12,0.4,30,4,0.133333333,30,10,0.333333333
24522,SCI,AFRO,Western Africa,Liberia,LBR,LR,Bong,2747,Jorquelleh,39175,Bong,26819,Yarkpawolo Suchpaye Pub. School,,-9.47212,7.00432,3,,Mapping,2012,10,15,29,10,0.344827586,29,4,0.137931034,29,2,0.068965517
24525,SCI,AFRO,Western Africa,Liberia,LBR,LR,Bong,2747,Saclepea-Mah,39220,Bong,26819,Yila Public School,,-9.11445,6.86352,3,,Mapping,2012,10,14,30,10,0.333333333,30,6,0.2,30,9,0.3
24526,SCI,AFRO,Western Africa,Liberia,LBR,LR,Bong,2747,Panta-Kpa,39177,Bong,26819,Youth Mission Pub. Sch.,,-9.2372904,7.04849,3,,Mapping,2012,10,14,30,8,0.266666667,30,8,0.266666667,30,6,0.2
24527,SCI,AFRO,Western Africa,Liberia,LBR,LR,Bong,2747,Zota,39181,Bong,26819,Yowee Public School,,-9.30995,7.18614,3,,Mapping,2012,10,14,30,23,0.766666667,30,11,0.366666667,30,11,0.366666667
24528,SCI,AFRO,Western Africa,Liberia,LBR,LR,Bong,2747,Panta-Kpa,39177,Bong,26819,Zarwuah Public,,-9.17425,6.83933,3,,Mapping,2012,10,13,30,11,0.366666667,30,5,0.166666667,30,5,0.166666667
24529,SCI,AFRO,Western Africa,Liberia,LBR,LR,Bong,2747,District #3,39189,Bong,26819,Zeo Public School,,-9.35708,6.62176,3,,Mapping,2012,10,14,30,11,0.366666667,30,8,0.266666667,30,6,0.2
24531,SCI,AFRO,Western Africa,Liberia,LBR,LR,Gbarpolu,2748,Belle Yella,39182,Gbarpolu,26820,Amdu Memorial Public,,-10.0807298,7.4952637,2,,Mapping,2013,10,16,30,7,0.233333333,30,3,0.1,30,0,0
24532,SCI,AFRO,Western Africa,Liberia,LBR,LR,Gbarpolu,2748,Kongba,39186,Gbarpolu,26820,Amtel Community School,,-10.532424,7.4659822,1,,Mapping,2013,10,14,30,0,0,30,0,0,30,0,0
24533,SCI,AFRO,Western Africa,Liberia,LBR,LR,Gbarpolu,2748,Belle Yella,39182,Gbarpolu,26820,Beaden Public School,,-10.13976,7.52089,3,,Mapping,2013,9,14,30,0,0,30,0,0,30,0,0
24534,SCI,AFRO,Western Africa,Liberia,LBR,LR,Gbarpolu,2748,Gbarma,39185,Gbarpolu,26820,Beatoe Public School,,-10.83029,7.02403,3,,Mapping,2013,9,14,30,3,0.1,30,0,0,30,0,0
24535,SCI,AFRO,Western Africa,Liberia,LBR,LR,Gbarpolu,2748,Belle Yella,39182,Gbarpolu,26820,Belle Baloma Public School,,-9.97816,7.57141,3,,Mapping,2013,10,15,30,0,0,30,0,0,30,0,0
24536,SCI,AFRO,Western Africa,Liberia,LBR,LR,Gbarpolu,2748,Bokomu,39183,Gbarpolu,26820,Bellekpamu,,-10.24497,7.15464,3,,Mapping,2013,9,16,30,9,0.3,30,4,0.133333333,30,0,0
24537,SCI,AFRO,Western Africa,Liberia,LBR,LR,Gbarpolu,2748,Kongba,39186,Gbarpolu,26820,Bethuo Public School,,-10.54149,7.76965,3,,Mapping,2013,10,15,30,0,0,30,0,0,30,0,0
24538,SCI,AFRO,Western Africa,Liberia,LBR,LR,Gbarpolu,2748,Bopolu,39184,Gbarpolu,26820,Bombomma Community School,,-10.58123,6.90921,3,,Mapping,2013,9,15,30,3,0.1,30,1,0.033333333,30,1,0.033333333
24539,SCI,AFRO,Western Africa,Liberia,LBR,LR,Gbarpolu,2748,Belle Yella,39182,Gbarpolu,26820,Bonah Memorial Public School,,-10.05352,7.55973,3,,Mapping,2013,10,15,30,5,0.166666667,30,2,0.066666667,30,0,0
24540,SCI,AFRO,Western Africa,Liberia,LBR,LR,Gbarpolu,2748,Bopolu,39184,Gbarpolu,26820,Bopolu Bible Mission School,,-10.4829486,7.0665633,1,,Mapping,2013,10,14,30,0,0,30,3,0.1,30,0,0
24541,SCI,AFRO,Western Africa,Liberia,LBR,LR,Gbarpolu,2748,Bopolu,39184,Gbarpolu,26820,Bopolu Public School,,-10.48656,7.069609,1,,Mapping,2013,9,15,30,3,0.1,30,0,0,30,0,0
24542,SCI,AFRO,Western Africa,Liberia,LBR,LR,Gbarpolu,2748,Bopolu,39184,Gbarpolu,26820,Bowier Memorial Public School,,-10.34949,7.26774,3,,Mapping,2013,10,14,30,7,0.233333333,30,1,0.033333333,30,0,0
24543,SCI,AFRO,Western Africa,Liberia,LBR,LR,Gbarpolu,2748,Kongba,39186,Gbarpolu,26820,Comp Alpha Poblic School,,-10.68601,7.51786,3,,Mapping,2013,9,14,30,1,0.033333333,30,0,0,30,1,0.033333333
24544,SCI,AFRO,Western Africa,Liberia,LBR,LR,Gbarpolu,2748,Bopolu,39184,Gbarpolu,26820,Compoundsu Community School,,-10.54596,6.9362,3,,Mapping,2013,8,13,30,5,0.166666667,30,0,0,30,1,0.033333333
24545,SCI,AFRO,Western Africa,Liberia,LBR,LR,Gbarpolu,2748,Kongba,39186,Gbarpolu,26820,Domamana Public,,-10.347034,7.72665,1,,Mapping,2013,10,14,30,0,0,30,0,0,30,0,0
24546,SCI,AFRO,Western Africa,Liberia,LBR,LR,Gbarpolu,2748,Bopolu,39184,Gbarpolu,26820,Dorbor Memorial Public School,,-10.27554,7.44776,3,,Mapping,2013,10,15,30,5,0.166666667,30,1,0.033333333,30,0,0
24547,SCI,AFRO,Western Africa,Liberia,LBR,LR,Gbarpolu,2748,Bopolu,39184,Gbarpolu,26820,Farwein Town Community School,,-10.52412,7.07739,3,,Mapping,2013,10,15,30,7,0.233333333,30,2,0.066666667,30,0,0
24548,SCI,AFRO,Western Africa,Liberia,LBR,LR,Gbarpolu,2748,Belle Yella,39182,Gbarpolu,26820,Fassama  Public School,,-9.99507,7.51942,3,,Mapping,2013,10,14,30,10,0.333333333,30,2,0.066666667,30,0,0
24549,SCI,AFRO,Western Africa,Liberia,LBR,LR,Gbarpolu,2748,Belle Yella,39182,Gbarpolu,26820,Fassama Mission School,,-10.00021,7.52143,3,,Mapping,2013,10,15,30,0,0,30,0,0,30,0,0
24550,SCI,AFRO,Western Africa,Liberia,LBR,LR,Gbarpolu,2748,Bokomu,39183,Gbarpolu,26820,Forkpa Ta Public School,,-10.04713,7.31777,3,,Mapping,2013,10,16,30,12,0.4,30,6,0.2,30,0,0
24551,SCI,AFRO,Western Africa,Liberia,LBR,LR,Gbarpolu,2748,Belle Yella,39182,Gbarpolu,26820,Gatima Public School,,-10.05305,7.69565,3,,Mapping,2013,10,14,30,5,0.166666667,30,0,0,30,0,0
24552,SCI,AFRO,Western Africa,Liberia,LBR,LR,Gbarpolu,2748,Gbarma,39185,Gbarpolu,26820,Gbarma Central Elementary,,-10.6421799,7.1628444,1,,Mapping,2013,10,13,30,6,0.2,30,3,0.1,30,0,0
24554,SCI,AFRO,Western Africa,Liberia,LBR,LR,Gbarpolu,2748,Bokomu,39183,Gbarpolu,26820,Gbarngay Public School,,-10.30856,7.18554,3,,Mapping,2013,9,14,30,8,0.266666667,30,4,0.133333333,30,0,0
24555,SCI,AFRO,Western Africa,Liberia,LBR,LR,Gbarpolu,2748,Bopolu,39184,Gbarpolu,26820,Gbarquoita Public School,,-10.51386,7.11177,3,,Mapping,2013,9,14,30,5,0.166666667,30,2,0.066666667,30,0,0
24556,SCI,AFRO,Western Africa,Liberia,LBR,LR,Gbarpolu,2748,Bokomu,39183,Gbarpolu,26820,Gborketa Elem. & Jr High,,-10.06376,7.27491,3,,Mapping,2013,9,15,30,11,0.366666667,30,5,0.166666667,30,0,0
24557,SCI,AFRO,Western Africa,Liberia,LBR,LR,Gbarpolu,2748,Bopolu,39184,Gbarpolu,26820,Gendema Community School,,-10.533333,6.983333,1,,Mapping,2013,9,13,30,7,0.233333333,30,4,0.133333333,30,0,0
24558,SCI,AFRO,Western Africa,Liberia,LBR,LR,Gbarpolu,2748,Bokomu,39183,Gbarpolu,26820,Gumgbeta Public,,-10.094094,7.259589,1,,Mapping,2013,9,15,30,10,0.333333333,30,1,0.033333333,30,0,0
24559,SCI,AFRO,Western Africa,Liberia,LBR,LR,Gbarpolu,2748,Bopolu,39184,Gbarpolu,26820,Gunya Town Community School,,-10.54307,7.0918,3,,Mapping,2013,10,15,30,6,0.2,30,2,0.066666667,30,0,0
24560,SCI,AFRO,Western Africa,Liberia,LBR,LR,Gbarpolu,2748,Gbarma,39185,Gbarpolu,26820,Hilton Dudee Public School,,-10.85157,7.0337,3,,Mapping,2013,10,15,30,3,0.1,30,1,0.033333333,30,0,0
24561,SCI,AFRO,Western Africa,Liberia,LBR,LR,Gbarpolu,2748,Kongba,39186,Gbarpolu,26820,Jarwajei Bowar Public School,,-10.61139,7.59745,3,,Mapping,2013,9,15,30,0,0,30,0,0,30,0,0
24562,SCI,AFRO,Western Africa,Liberia,LBR,LR,Gbarpolu,2748,Kongba,39186,Gbarpolu,26820,Jarwajei Dekepeh Community,,-10.5743,7.79368,3,,Mapping,2013,9,14,30,1,0.033333333,30,1,0.033333333,30,0,0
24563,SCI,AFRO,Western Africa,Liberia,LBR,LR,Gbarpolu,2748,Kongba,39186,Gbarpolu,26820,Joseph V.mcgill Public School,,-10.46105,7.65699,3,,Mapping,2013,9,13,30,1,0.033333333,30,0,0,30,0,0
24564,SCI,AFRO,Western Africa,Liberia,LBR,LR,Gbarpolu,2748,Gola Konneh,39192,Gbarpolu,26820,K. k Gonah Elem. & Junior High Sch.,,-10.75964,7.11446,3,,Mapping,2013,10,14,30,3,0.1,30,1,0.033333333,30,0,0
24566,SCI,AFRO,Western Africa,Liberia,LBR,LR,Gbarpolu,2748,Gbarma,39185,Gbarpolu,26820,Karmley Public Sch.,,-10.77312,6.97272,3,,Mapping,2013,10,14,30,3,0.1,30,2,0.066666667,30,0,0
24530,SCI,AFRO,Western Africa,Liberia,LBR,LR,Gbarpolu,2748,Belle Yella,39182,Gbarpolu,26820,Konduse Public School,,-10.10811,7.66791,3,,Mapping,2013,10,15,30,9,0.3,30,0,0,30,0,0
24567,SCI,AFRO,Western Africa,Liberia,LBR,LR,Gbarpolu,2748,Belle Yella,39182,Gbarpolu,26820,Konjido Public School,,-9.958,7.54048,3,,Mapping,2013,10,14,30,0,0,30,0,0,30,0,0
24568,SCI,AFRO,Western Africa,Liberia,LBR,LR,Gbarpolu,2748,Belle Yella,39182,Gbarpolu,26820,Kpawolozu Public School,,-9.7671716,7.6167301,1,,Mapping,2013,9,14,30,5,0.166666667,30,2,0.066666667,30,0,0
24569,SCI,AFRO,Western Africa,Liberia,LBR,LR,Gbarpolu,2748,Kongba,39186,Gbarpolu,26820,Kumgbor Public School,,-10.57534,7.64555,3,,Mapping,2013,9,16,30,1,0.033333333,30,0,0,30,0,0
24570,SCI,AFRO,Western Africa,Liberia,LBR,LR,Gbarpolu,2748,Belle Yella,39182,Gbarpolu,26820,Kuwaa Lutheran School,,-9.97382,7.57103,3,,Mapping,2013,10,15,30,6,0.2,30,0,0,30,0,0
24571,SCI,AFRO,Western Africa,Liberia,LBR,LR,Gbarpolu,2748,Kongba,39186,Gbarpolu,26820,Liberia Assembly of God School,,-10.57959,7.64458,3,,Mapping,2013,9,14,30,1,0.033333333,30,0,0,30,0,0
24572,SCI,AFRO,Western Africa,Liberia,LBR,LR,Gbarpolu,2748,Bopolu,39184,Gbarpolu,26820,Lott Carey Mission,,-10.53816,6.95695,3,,Mapping,2013,9,14,30,6,0.2,30,2,0.066666667,30,0,0
24573,SCI,AFRO,Western Africa,Liberia,LBR,LR,Gbarpolu,2748,Belle Yella,39182,Gbarpolu,26820,Low0ma Public School,,-10.0022,7.66354,3,,Mapping,2013,10,15,30,4,0.133333333,30,0,0,30,0,0
24575,SCI,AFRO,Western Africa,Liberia,LBR,LR,Gbarpolu,2748,Bopolu,39184,Gbarpolu,26820,Mamawala Community School,,-10.51639,7.03407,3,,Mapping,2013,9,14,30,3,0.1,30,0,0,30,0,0
24576,SCI,AFRO,Western Africa,Liberia,LBR,LR,Gbarpolu,2748,Bokomu,39183,Gbarpolu,26820,Matubelkwelleh Public School,,-10.2673,7.21764,3,,Mapping,2013,9,13,30,5,0.166666667,30,5,0.166666667,30,0,0
24577,SCI,AFRO,Western Africa,Liberia,LBR,LR,Gbarpolu,2748,Bokomu,39183,Gbarpolu,26820,Molowamu Public School,,-10.28445,7.1997,3,,Mapping,2013,9,15,30,3,0.1,30,4,0.133333333,30,0,0
24578,SCI,AFRO,Western Africa,Liberia,LBR,LR,Gbarpolu,2748,Bokomu,39183,Gbarpolu,26820,Morlakwelleh Elem. & Junior High Sch.,,-10.14362,7.19477,3,,Mapping,2013,10,15,30,7,0.233333333,30,3,0.1,30,0,0
24579,SCI,AFRO,Western Africa,Liberia,LBR,LR,Gbarpolu,2748,Belle Yella,39182,Gbarpolu,26820,Morvordor Public Sschool,,-9.9675198,7.51087,3,,Mapping,2013,10,14,30,8,0.266666667,30,0,0,30,0,0
24580,SCI,AFRO,Western Africa,Liberia,LBR,LR,Gbarpolu,2748,Bopolu,39184,Gbarpolu,26820,Mulbah Town Public School,,-10.54203,7.03128,3,,Mapping,2013,9,14,30,11,0.366666667,30,2,0.066666667,30,0,0
24581,SCI,AFRO,Western Africa,Liberia,LBR,LR,Gbarpolu,2748,Gola Konneh,39192,Gbarpolu,26820,Njaboi Public Sch.,,-10.80758,7.10831,3,,Mapping,2013,10,14,30,3,0.1,30,2,0.066666667,30,0,0
24582,SCI,AFRO,Western Africa,Liberia,LBR,LR,Gbarpolu,2748,Kongba,39186,Gbarpolu,26820,Normon Public School,,-10.5872,7.8447,3,,Mapping,2013,9,14,30,0,0,30,0,0,30,0,0
24583,SCI,AFRO,Western Africa,Liberia,LBR,LR,Gbarpolu,2748,Bopolu,39184,Gbarpolu,26820,Nuforta Public School,,-10.60435,7.02073,3,,Mapping,2013,9,14,30,9,0.3,30,4,0.133333333,30,0,0
24584,SCI,AFRO,Western Africa,Liberia,LBR,LR,Gbarpolu,2748,Bokomu,39183,Gbarpolu,26820,Nyema Public School,,-10.21078,7.19187,3,,Mapping,2013,9,15,30,8,0.266666667,30,4,0.133333333,30,1,0.033333333
24585,SCI,AFRO,Western Africa,Liberia,LBR,LR,Gbarpolu,2748,Gola Konneh,39192,Gbarpolu,26820,Parker Town Public Sch.,,-10.86707,7.04234,3,,Mapping,2013,9,13,30,5,0.166666667,30,2,0.066666667,30,0,0
24586,SCI,AFRO,Western Africa,Liberia,LBR,LR,Gbarpolu,2748,Gola Konneh,39192,Gbarpolu,26820,Quweh Public School,,-10.87594,7.06389,3,,Mapping,2013,10,14,30,4,0.133333333,30,2,0.066666667,30,0,0
24587,SCI,AFRO,Western Africa,Liberia,LBR,LR,Gbarpolu,2748,Kongba,39186,Gbarpolu,26820,S.l.c. Public School,,-10.65103,7.44922,3,,Mapping,2013,10,14,30,2,0.066666667,30,2,0.066666667,30,0,0
24588,SCI,AFRO,Western Africa,Liberia,LBR,LR,Gbarpolu,2748,Kolahun,39204,Gbarpolu,26820,Sasasu,,-10.03789,7.74378,3,,Mapping,2013,9,14,30,3,0.1,30,0,0,30,0,0
24589,SCI,AFRO,Western Africa,Liberia,LBR,LR,Gbarpolu,2748,Bopolu,39184,Gbarpolu,26820,Selman Ballah Public School,,-10.47088,7.07938,3,,Mapping,2013,9,14,30,3,0.1,30,0,0,30,0,0
24590,SCI,AFRO,Western Africa,Liberia,LBR,LR,Gbarpolu,2748,Bopolu,39184,Gbarpolu,26820,St. Monica Catholic School,,-10.48695,7.06333,3,,Mapping,2013,9,13,30,5,0.166666667,30,0,0,30,0,0
24591,SCI,AFRO,Western Africa,Liberia,LBR,LR,Gbarpolu,2748,Gbarma,39185,Gbarpolu,26820,Tawafea Public Sch.,,-10.77005,7.00813,3,,Mapping,2013,10,14,30,6,0.2,30,0,0,30,0,0
24592,SCI,AFRO,Western Africa,Liberia,LBR,LR,Gbarpolu,2748,Gbarma,39185,Gbarpolu,26820,Tima Community School,,-10.66672,7.40918,3,,Mapping,2013,9,14,30,2,0.066666667,30,2,0.066666667,30,0,0
24593,SCI,AFRO,Western Africa,Liberia,LBR,LR,Gbarpolu,2748,Bokomu,39183,Gbarpolu,26820,Toinkwah Public,,-10.31567,7.11567,3,,Mapping,2013,10,15,30,11,0.366666667,30,4,0.133333333,30,0,0
24594,SCI,AFRO,Western Africa,Liberia,LBR,LR,Gbarpolu,2748,Bopolu,39184,Gbarpolu,26820,Tumukola Public,,-10.623667,6.993006,1,,Mapping,2013,10,15,30,8,0.266666667,30,4,0.133333333,30,0,0
24596,SCI,AFRO,Western Africa,Liberia,LBR,LR,Gbarpolu,2748,Bopolu,39184,Gbarpolu,26820,Varmah Town Public School,,-10.40153,7.05371,3,,Mapping,2013,9,14,30,3,0.1,30,0,0,30,0,0
24597,SCI,AFRO,Western Africa,Liberia,LBR,LR,Gbarpolu,2748,Gola Konneh,39192,Gbarpolu,26820,Weafua Public Sch.,,-10.82688,7.08782,3,,Mapping,2013,10,15,30,6,0.2,30,2,0.066666667,30,0,0
24598,SCI,AFRO,Western Africa,Liberia,LBR,LR,Gbarpolu,2748,Gbarma,39185,Gbarpolu,26820,Wealiquah Public School,,-10.68306,7.08071,3,,Mapping,2013,10,14,30,3,0.1,30,2,0.066666667,30,0,0
24599,SCI,AFRO,Western Africa,Liberia,LBR,LR,Gbarpolu,2748,Gola Konneh,39192,Gbarpolu,26820,Weamawuo Public Sch.,,-10.87621,7.06637,3,,Mapping,2013,11,15,30,5,0.166666667,30,3,0.1,30,0,0
24600,SCI,AFRO,Western Africa,Liberia,LBR,LR,Gbarpolu,2748,Kongba,39186,Gbarpolu,26820,Wongo Community School,,-10.5355,7.76966,3,,Mapping,2013,10,15,30,1,0.033333333,30,0,0,30,0,0
24601,SCI,AFRO,Western Africa,Liberia,LBR,LR,Gbarpolu,2748,Kongba,39186,Gbarpolu,26820,Yonton B.kesselly Public School,,-10.51253,7.65162,3,,Mapping,2013,9,15,30,0,0,30,0,0,30,0,0
24602,SCI,AFRO,Western Africa,Liberia,LBR,LR,Gbarpolu,2748,Bokomu,39183,Gbarpolu,26820,Zelekai Public,,-10.23172,7.21399,3,,Mapping,2013,9,15,30,5,0.166666667,30,3,0.1,30,4,0.133333333
24603,SCI,AFRO,Western Africa,Liberia,LBR,LR,Gbarpolu,2748,Gbarma,39185,Gbarpolu,26820,Zuo Mission School,,-10.765089,7.028056,1,,Mapping,2013,10,15,30,4,0.133333333,30,1,0.033333333,30,0,0
24604,SCI,AFRO,Western Africa,Liberia,LBR,LR,Gbarpolu,2748,Gbarma,39185,Gbarpolu,26820,Zuo Primary Sch.,,-10.76871,7.01355,3,,Mapping,2013,10,14,30,4,0.133333333,30,3,0.1,30,0,0
24605,SCI,AFRO,Western Africa,Liberia,LBR,LR,Grand Bassa,2749,District #2,39188,Grand Bassa,26821,Am. Nyoun Public School,,-9.93441,6.40879,3,,Mapping,2013,7,14,30,4,0.133333333,30,4,0.133333333,30,2,0.066666667
24606,SCI,AFRO,Western Africa,Liberia,LBR,LR,Grand Bassa,2749,District #3,39189,Grand Bassa,26821,Autum King Primary School,,-10.02233,5.89323,3,,Mapping,2013,7,13,30,1,0.033333333,30,9,0.3,30,0,0
24607,SCI,AFRO,Western Africa,Liberia,LBR,LR,Grand Bassa,2749,District #1,39187,Grand Bassa,26821,Barclaysville Public School,,-10.24108,6.15962,3,,Mapping,2013,10,13,30,2,0.066666667,30,15,0.5,30,0,0
24608,SCI,AFRO,Western Africa,Liberia,LBR,LR,Grand Bassa,2749,District #2,39188,Grand Bassa,26821,Barsee Giah Public School,,-9.96428,6.0883,3,,Mapping,2013,10,14,30,1,0.033333333,30,6,0.2,30,0,0
24609,SCI,AFRO,Western Africa,Liberia,LBR,LR,Grand Bassa,2749,District #3,39189,Grand Bassa,26821,Bassa Elementary Demonstration,,-10.04452,5.881869,3,,Mapping,2013,9,14,30,0,0,30,6,0.2,30,0,0
24610,SCI,AFRO,Western Africa,Liberia,LBR,LR,Grand Bassa,2749,District #2,39188,Grand Bassa,26821,Benjamin Clarke,,-10.01145,6.00169,3,,Mapping,2013,9,14,30,2,0.066666667,30,10,0.333333333,30,3,0.1
24611,SCI,AFRO,Western Africa,Liberia,LBR,LR,Grand Bassa,2749,District #3,39189,Grand Bassa,26821,Benson River Elementary,,-10.01392,5.89923,3,,Mapping,2013,10,11,30,0,0,30,2,0.066666667,30,0,0
24612,SCI,AFRO,Western Africa,Liberia,LBR,LR,Grand Bassa,2749,District #2,39188,Grand Bassa,26821,Bexley Public,,-9.931,6.30016,3,,Mapping,2013,9,14,30,2,0.066666667,30,14,0.466666667,30,0,0
24613,SCI,AFRO,Western Africa,Liberia,LBR,LR,Grand Bassa,2749,District #2,39188,Grand Bassa,26821,"Bia Public School, St. John River City",,-10.0135929,6.0387843,1,,Mapping,2013,9,14,30,1,0.033333333,30,12,0.4,30,1,0.033333333
24614,SCI,AFRO,Western Africa,Liberia,LBR,LR,Grand Bassa,2749,District #3,39189,Grand Bassa,26821,Bible Faith Elem Jr. Sch.,,-10.02936,5.894,3,,Mapping,2013,10,11,30,1,0.033333333,30,2,0.066666667,30,0,0
24615,SCI,AFRO,Western Africa,Liberia,LBR,LR,Grand Bassa,2749,District #3,39189,Grand Bassa,26821,Bishop John W. Foster,,-10.04472,5.88109,3,,Mapping,2013,10,14,30,0,0,30,3,0.1,30,0,0
24616,SCI,AFRO,Western Africa,Liberia,LBR,LR,Grand Bassa,2749,District #3,39189,Grand Bassa,26821,Blessed Allamano Jr.high School,,-9.79116,6.0831,3,,Mapping,2013,10,14,30,2,0.066666667,30,5,0.166666667,30,0,0
24617,SCI,AFRO,Western Africa,Liberia,LBR,LR,Grand Bassa,2749,District #3,39189,Grand Bassa,26821,Boe Dayugar Public School,,-9.63504,6.34011,3,,Mapping,2013,10,13,30,6,0.2,30,10,0.333333333,30,0,0
24618,SCI,AFRO,Western Africa,Liberia,LBR,LR,Grand Bassa,2749,District #1,39187,Grand Bassa,26821,Boique Elementary & Jr. High School,,-10.21541,6.13566,3,,Mapping,2013,10,14,30,4,0.133333333,30,6,0.2,30,3,0.1
24619,SCI,AFRO,Western Africa,Liberia,LBR,LR,Grand Bassa,2749,District #4,39190,Grand Bassa,26821,Buugboun Public School,,-9.7621832,5.8040829,3,,Mapping,2013,8,14,30,2,0.066666667,30,5,0.166666667,30,0,0
24620,SCI,AFRO,Western Africa,Liberia,LBR,LR,Grand Bassa,2749,District #2,39188,Grand Bassa,26821,C.b.reeves,,-10.01067,6.01758,3,,Mapping,2013,8,12,30,0,0,30,15,0.5,30,0,0
24621,SCI,AFRO,Western Africa,Liberia,LBR,LR,Grand Bassa,2749,District #2,39188,Grand Bassa,26821,Camp Mechlin Public School,,-10.04314,6.06244,3,,Mapping,2013,7,14,30,2,0.066666667,30,11,0.366666667,30,3,0.1
24622,SCI,AFRO,Western Africa,Liberia,LBR,LR,Grand Bassa,2749,District #4,39190,Grand Bassa,26821,Cecelia Williams Bryant,,-9.71839,5.76074,3,,Mapping,2013,10,14,30,3,0.1,30,8,0.266666667,30,7,0.233333333
24623,SCI,AFRO,Western Africa,Liberia,LBR,LR,Grand Bassa,2749,Morweh,39227,Grand Bassa,26821,Ceedyah Public School,,-9.40728,6.16862,3,,Mapping,2013,9,14,30,11,0.366666667,30,8,0.266666667,30,0,0
24624,SCI,AFRO,Western Africa,Liberia,LBR,LR,Grand Bassa,2749,District #3,39189,Grand Bassa,26821,Chariot Day-Care and Elementary,,-10.04512,5.88179,3,,Mapping,2013,10,11,30,0,0,30,2,0.066666667,30,0,0
24625,SCI,AFRO,Western Africa,Liberia,LBR,LR,Grand Bassa,2749,District #3,39189,Grand Bassa,26821,Children Future Program Day Care Elementary School,,-10.042983,5.8821998,3,,Mapping,2013,10,14,30,1,0.033333333,30,14,0.466666667,30,0,0
24626,SCI,AFRO,Western Africa,Liberia,LBR,LR,Grand Bassa,2749,District #1,39187,Grand Bassa,26821,Chippy Memorial Public  School,,-10.3156,6.25591,3,,Mapping,2013,10,14,30,5,0.166666667,30,11,0.366666667,30,2,0.066666667
24627,SCI,AFRO,Western Africa,Liberia,LBR,LR,Grand Bassa,2749,District #4,39190,Grand Bassa,26821,D.roosevelt Karngar Public School,,-9.82009,5.85574,3,,Mapping,2013,10,14,30,6,0.2,30,15,0.5,30,1,0.033333333
24628,SCI,AFRO,Western Africa,Liberia,LBR,LR,Grand Bassa,2749,District #4,39190,Grand Bassa,26821,Datarr Community School,,-9.8535004,5.7914672,3,,Mapping,2013,10,14,30,0,0,30,13,0.433333333,30,0,0
24629,SCI,AFRO,Western Africa,Liberia,LBR,LR,Grand Bassa,2749,Morweh,39227,Grand Bassa,26821,Dew Elementary School,,-9.47057,6.09103,4,,Mapping,2013,8,14,30,1,0.033333333,30,8,0.266666667,30,1,0.033333333
24630,SCI,AFRO,Western Africa,Liberia,LBR,LR,Grand Bassa,2749,District #3,39189,Grand Bassa,26821,Faith Baptist Community School System,,-10.04405,5.8930831,3,,Mapping,2013,9,14,30,0,0,30,2,0.066666667,30,0,0
24631,SCI,AFRO,Western Africa,Liberia,LBR,LR,Grand Bassa,2749,District #1,39187,Grand Bassa,26821,Faith Community,,-10.3203,6.26634,3,,Mapping,2013,10,13,30,3,0.1,30,16,0.533333333,30,0,0
24632,SCI,AFRO,Western Africa,Liberia,LBR,LR,Grand Bassa,2749,District #3,39189,Grand Bassa,26821,Faith Elementary School System,,-10.0477,5.87962,3,,Mapping,2013,10,13,30,3,0.1,30,18,0.6,30,1,0.033333333
24633,SCI,AFRO,Western Africa,Liberia,LBR,LR,Grand Bassa,2749,District #2,39188,Grand Bassa,26821,Feetuah Public School,,-9.84152,6.34349,3,,Mapping,2013,8,14,30,3,0.1,30,6,0.2,30,0,0
24634,SCI,AFRO,Western Africa,Liberia,LBR,LR,Grand Bassa,2749,District #3,39189,Grand Bassa,26821,Four Houses Public School,,-10.036217,5.910233,3,,Mapping,2013,10,14,30,0,0,30,4,0.133333333,30,0,0
24635,SCI,AFRO,Western Africa,Liberia,LBR,LR,Grand Bassa,2749,District #2,39188,Grand Bassa,26821,Frank Diggs Public School,,-10.02484,6.0813,3,,Mapping,2013,10,14,30,3,0.1,30,3,0.1,30,0,0
24636,SCI,AFRO,Western Africa,Liberia,LBR,LR,Grand Bassa,2749,District #3,39189,Grand Bassa,26821,Fred Mart Daycare & Elem School Jecko's Town,,-10.03063,5.89938,3,,Mapping,2013,10,13,30,0,0,30,7,0.233333333,30,1,0.033333333
24637,SCI,AFRO,Western Africa,Liberia,LBR,LR,Grand Bassa,2749,District #2,39188,Grand Bassa,26821,Gbarwein Public School,,-9.89883,6.26773,3,,Mapping,2013,9,14,30,0,0,30,5,0.166666667,30,0,0
24638,SCI,AFRO,Western Africa,Liberia,LBR,LR,Grand Bassa,2749,District #3,39189,Grand Bassa,26821,Gbehzohn Community Daycare School,,-10.04504,5.88169,3,,Mapping,2013,10,11,30,3,0.1,30,5,0.166666667,30,1,0.033333333
24639,SCI,AFRO,Western Africa,Liberia,LBR,LR,Grand Bassa,2749,District #4,39190,Grand Bassa,26821,Geeblee Public,,-9.57035,6.09884,4,,Mapping,2013,9,14,30,6,0.2,30,5,0.166666667,30,4,0.133333333
24640,SCI,AFRO,Western Africa,Liberia,LBR,LR,Grand Bassa,2749,Timbo,39228,Grand Bassa,26821,Geegbar Public School,,-9.6726332,5.8667331,3,,Mapping,2013,10,14,30,5,0.166666667,30,7,0.233333333,30,0,0
24641,SCI,AFRO,Western Africa,Liberia,LBR,LR,Grand Bassa,2749,District #3,39189,Grand Bassa,26821,Gehn Town Public School,,-9.7154999,6.2635999,3,,Mapping,2013,9,14,30,5,0.166666667,30,6,0.2,30,0,0
24642,SCI,AFRO,Western Africa,Liberia,LBR,LR,Grand Bassa,2749,District #4,39190,Grand Bassa,26821,Gianda Elementary and Junior High School,,-9.60745,6.19896,3,,Mapping,2013,10,14,30,3,0.1,30,4,0.133333333,30,0,0
24643,SCI,AFRO,Western Africa,Liberia,LBR,LR,Grand Bassa,2749,District #4,39190,Grand Bassa,26821,Gio-Town Public School,,-9.8528671,5.7952328,3,,Mapping,2013,10,14,30,3,0.1,30,8,0.266666667,30,0,0
24644,SCI,AFRO,Western Africa,Liberia,LBR,LR,Grand Bassa,2749,District #2,39188,Grand Bassa,26821,Glakon Public School,,-10.03348,6.02604,3,,Mapping,2013,8,14,30,2,0.066666667,30,12,0.4,30,0,0
24645,SCI,AFRO,Western Africa,Liberia,LBR,LR,Grand Bassa,2749,Morweh,39227,Grand Bassa,26821,Golden Gate Academy,,-9.47444,6.08704,4,,Mapping,2013,8,14,30,2,0.066666667,30,8,0.266666667,30,0,0
24646,SCI,AFRO,Western Africa,Liberia,LBR,LR,Grand Bassa,2749,Morweh,39227,Grand Bassa,26821,Gorblee Elementary School,,-9.47659,6.0874,4,,Mapping,2013,8,14,30,3,0.1,30,10,0.333333333,30,0,0
24647,SCI,AFRO,Western Africa,Liberia,LBR,LR,Grand Bassa,2749,District #4,39190,Grand Bassa,26821,Government Day Public School,,-9.7117834,5.9085832,3,,Mapping,2013,9,14,30,3,0.1,30,7,0.233333333,30,0,0
24648,SCI,AFRO,Western Africa,Liberia,LBR,LR,Grand Bassa,2749,District #2,39188,Grand Bassa,26821,Government Morning Elementary,,-10.01394,6.00207,3,,Mapping,2013,8,14,30,5,0.166666667,30,6,0.2,30,4,0.133333333
24649,SCI,AFRO,Western Africa,Liberia,LBR,LR,Grand Bassa,2749,District #3,39189,Grand Bassa,26821,Grand Kola Public School,,-9.61483,6.39503,3,,Mapping,2013,10,14,30,4,0.133333333,30,13,0.433333333,30,1,0.033333333
24650,SCI,AFRO,Western Africa,Liberia,LBR,LR,Grand Bassa,2749,District #4,39190,Grand Bassa,26821,Harrisville Public School,,-9.83302,5.71401,3,,Mapping,2013,10,14,30,4,0.133333333,30,6,0.2,30,3,0.1
24651,SCI,AFRO,Western Africa,Liberia,LBR,LR,Grand Bassa,2749,District #4,39190,Grand Bassa,26821,Hermann Emeiner International School,,-9.58905,6.08259,4,,Mapping,2013,9,14,30,3,0.1,30,10,0.333333333,30,2,0.066666667
24652,SCI,AFRO,Western Africa,Liberia,LBR,LR,Grand Bassa,2749,District #3,39189,Grand Bassa,26821,Hope Kindergarten,,-10.02192,5.89592,3,,Mapping,2013,10,11,30,0,0,30,1,0.033333333,30,0,0
24653,SCI,AFRO,Western Africa,Liberia,LBR,LR,Grand Bassa,2749,District #1,39187,Grand Bassa,26821,J. J. Cheesemen Public School,,-10.27441,6.21622,3,,Mapping,2013,9,14,30,2,0.066666667,30,7,0.233333333,30,1,0.033333333
24654,SCI,AFRO,Western Africa,Liberia,LBR,LR,Grand Bassa,2749,District #3,39189,Grand Bassa,26821,James T. Chea Elem. School,,-10.0515,5.874567,3,,Mapping,2013,10,14,30,0,0,30,16,0.533333333,30,5,0.166666667
24655,SCI,AFRO,Western Africa,Liberia,LBR,LR,Grand Bassa,2749,District #4,39190,Grand Bassa,26821,John Gbagee Elementary School,,-9.7382498,5.7719669,3,,Mapping,2013,9,14,30,5,0.166666667,30,20,0.666666667,30,1,0.033333333
24656,SCI,AFRO,Western Africa,Liberia,LBR,LR,Grand Bassa,2749,Morweh,39227,Grand Bassa,26821,Julia Doncan Cassell Public School,,-9.42704,6.14348,4,,Mapping,2013,9,14,30,3,0.1,30,6,0.2,30,0,0
24657,SCI,AFRO,Western Africa,Liberia,LBR,LR,Grand Bassa,2749,District #4,39190,Grand Bassa,26821,Kobainu Elementary & Jr. High,,-9.55617,6.16823,3,,Mapping,2013,9,14,30,3,0.1,30,8,0.266666667,30,0,0
24658,SCI,AFRO,Western Africa,Liberia,LBR,LR,Grand Bassa,2749,District #3,39189,Grand Bassa,26821,Korkor David Public School,,-9.8222,6.10365,3,,Mapping,2013,8,14,30,8,0.266666667,30,8,0.266666667,30,0,0
24659,SCI,AFRO,Western Africa,Liberia,LBR,LR,Grand Bassa,2749,District #4,39190,Grand Bassa,26821,Kpahyoah Town Public School,,-9.81073,5.79726,3,,Mapping,2013,10,14,30,2,0.066666667,30,17,0.566666667,30,0,0
24660,SCI,AFRO,Western Africa,Liberia,LBR,LR,Grand Bassa,2749,District #3,39189,Grand Bassa,26821,Kpelleh Town Public School,,-10.0440386,5.881245,1,,Mapping,2013,10,14,30,1,0.033333333,30,2,0.066666667,30,0,0
24661,SCI,AFRO,Western Africa,Liberia,LBR,LR,Grand Bassa,2749,District #4,39190,Grand Bassa,26821,Kpellie Town Public School,,-9.6919,5.976,3,,Mapping,2013,10,14,30,2,0.066666667,30,12,0.4,30,1,0.033333333
24662,SCI,AFRO,Western Africa,Liberia,LBR,LR,Grand Bassa,2749,District #3,39189,Grand Bassa,26821,Kpogblahn Public School,,-9.74977,6.19336,3,,Mapping,2013,9,14,30,1,0.033333333,30,8,0.266666667,30,0,0
24663,SCI,AFRO,Western Africa,Liberia,LBR,LR,Grand Bassa,2749,District #3,39189,Grand Bassa,26821,Libinco School System,,-9.8488,6.02718,3,,Mapping,2013,9,14,30,1,0.033333333,30,16,0.533333333,30,1,0.033333333
24665,SCI,AFRO,Western Africa,Liberia,LBR,LR,Grand Bassa,2749,District #3,39189,Grand Bassa,26821,Little Kola Public School,,-9.529,6.46252,3,,Mapping,2013,10,13,30,0,0,30,19,0.633333333,30,0,0
24666,SCI,AFRO,Western Africa,Liberia,LBR,LR,Grand Bassa,2749,District #2,39188,Grand Bassa,26821,Lloydsville Elementary & Junior High School,,-10.079,6.07041,3,,Mapping,2013,7,13,30,2,0.066666667,30,7,0.233333333,30,2,0.066666667
24667,SCI,AFRO,Western Africa,Liberia,LBR,LR,Grand Bassa,2749,District #3,39189,Grand Bassa,26821,Logan Town Public School,,-9.99203,5.92794,3,,Mapping,2013,10,13,30,0,0,30,3,0.1,30,0,0
24669,SCI,AFRO,Western Africa,Liberia,LBR,LR,Grand Bassa,2749,District #4,39190,Grand Bassa,26821,Marblee Public School,,-9.82373,5.83773,3,,Mapping,2013,10,14,30,2,0.066666667,30,12,0.4,30,2,0.066666667
24670,SCI,AFRO,Western Africa,Liberia,LBR,LR,Grand Bassa,2749,Suakoko,39180,Grand Bassa,26821,Marloi Public,,-9.77413,6.78463,4,,Mapping,2013,10,13,30,0,0,30,11,0.366666667,30,0,0
24671,SCI,AFRO,Western Africa,Liberia,LBR,LR,Grand Bassa,2749,District #2,39188,Grand Bassa,26821,Martha S. Dunn,,-10.01403,6.00218,3,,Mapping,2013,7,13,30,1,0.033333333,30,15,0.5,30,0,0
24672,SCI,AFRO,Western Africa,Liberia,LBR,LR,Grand Bassa,2749,District #2,39188,Grand Bassa,26821,Nazohn Public School,,-10.00001,6.0863,3,,Mapping,2013,10,14,30,1,0.033333333,30,6,0.2,30,0,0
24673,SCI,AFRO,Western Africa,Liberia,LBR,LR,Grand Bassa,2749,District #1,39187,Grand Bassa,26821,Neegeewein Public School,,-10.28798,6.24234,3,,Mapping,2013,10,14,30,3,0.1,30,8,0.266666667,30,2,0.066666667
24674,SCI,AFRO,Western Africa,Liberia,LBR,LR,Grand Bassa,2749,District #4,39190,Grand Bassa,26821,New Era Public School,,-9.7263002,5.881567,3,,Mapping,2013,9,14,30,5,0.166666667,30,7,0.233333333,30,0,0
24676,SCI,AFRO,Western Africa,Liberia,LBR,LR,Grand Bassa,2749,District #2,39188,Grand Bassa,26821,New Series Primary,,-10.11853,5.95272,3,,Mapping,2013,10,14,30,3,0.1,30,13,0.433333333,30,5,0.166666667
24677,SCI,AFRO,Western Africa,Liberia,LBR,LR,Grand Bassa,2749,District #4,39190,Grand Bassa,26821,Newcess Public School,,-9.8877001,5.8152499,3,,Mapping,2013,10,14,30,5,0.166666667,30,17,0.566666667,30,0,0
24679,SCI,AFRO,Western Africa,Liberia,LBR,LR,Grand Bassa,2749,District #1,39187,Grand Bassa,26821,Noryou Town Public School,,-10.20601,6.07715,3,,Mapping,2013,10,14,29,3,0.103448276,29,5,0.172413793,29,1,0.034482759
24680,SCI,AFRO,Western Africa,Liberia,LBR,LR,Grand Bassa,2749,District #4,39190,Grand Bassa,26821,Nyonben Public School,,-9.7333702,5.7672297,1,,Mapping,2013,10,14,30,3,0.1,30,13,0.433333333,30,0,0
24681,SCI,AFRO,Western Africa,Liberia,LBR,LR,Grand Bassa,2749,District #3,39189,Grand Bassa,26821,Oceanview Christian School Ext. (Pillar of Fire),,-10.040217,5.8959169,3,,Mapping,2013,10,14,30,0,0,30,6,0.2,30,0,0
24682,SCI,AFRO,Western Africa,Liberia,LBR,LR,Grand Bassa,2749,District #1,39187,Grand Bassa,26821,Owensgrove Elementatry & Junior High,,-10.3302,6.26579,3,,Mapping,2013,10,14,30,4,0.133333333,30,4,0.133333333,30,0,0
24684,SCI,AFRO,Western Africa,Liberia,LBR,LR,Grand Bassa,2749,District #1,39187,Grand Bassa,26821,R.c Lawson Bokay Town,,-10.26538,6.18543,3,,Mapping,2013,10,14,30,4,0.133333333,30,12,0.4,30,1,0.033333333
24685,SCI,AFRO,Western Africa,Liberia,LBR,LR,Grand Bassa,2749,District #2,39188,Grand Bassa,26821,Rabitta Public School,,-9.88075,6.23661,3,,Mapping,2013,10,14,30,2,0.066666667,30,3,0.1,30,2,0.066666667
24686,SCI,AFRO,Western Africa,Liberia,LBR,LR,Grand Bassa,2749,District #2,39188,Grand Bassa,26821,Rally Road Public School,,-9.91601,6.2187,3,,Mapping,2013,9,14,30,2,0.066666667,30,6,0.2,30,0,0
24687,SCI,AFRO,Western Africa,Liberia,LBR,LR,Grand Bassa,2749,District #3,39189,Grand Bassa,26821,Richard G. James Public School,,-9.90094,6.0073,3,,Mapping,2013,10,14,30,3,0.1,30,10,0.333333333,30,0,0
24688,SCI,AFRO,Western Africa,Liberia,LBR,LR,Grand Bassa,2749,District #1,39187,Grand Bassa,26821,Saturday  Town Community School,,-10.3084,6.26331,3,,Mapping,2013,9,14,30,4,0.133333333,30,13,0.433333333,30,0,0
24689,SCI,AFRO,Western Africa,Liberia,LBR,LR,Grand Bassa,2749,District #1,39187,Grand Bassa,26821,Selfhelp Commmunity School,,-10.27242,6.21404,3,,Mapping,2013,10,14,30,3,0.1,30,10,0.333333333,30,0,0
24690,SCI,AFRO,Western Africa,Liberia,LBR,LR,Grand Bassa,2749,District #4,39190,Grand Bassa,26821,Senyah Public School,,-9.69861,6.14967,3,,Mapping,2013,10,14,30,5,0.166666667,30,12,0.4,30,2,0.066666667
24691,SCI,AFRO,Western Africa,Liberia,LBR,LR,Grand Bassa,2749,District #3,39189,Grand Bassa,26821,Seventh Day Adventist High School,,-10.03985,5.88688,3,,Mapping,2013,10,14,30,2,0.066666667,30,6,0.2,30,0,0
24692,SCI,AFRO,Western Africa,Liberia,LBR,LR,Grand Bassa,2749,District #2,39188,Grand Bassa,26821,"St.john Elementary, Jr. & Sr. High School",,-10.01062,6.01764,3,,Mapping,2013,9,14,30,1,0.033333333,30,16,0.533333333,30,0,0
24693,SCI,AFRO,Western Africa,Liberia,LBR,LR,Grand Bassa,2749,District #2,39188,Grand Bassa,26821,St.michael Junior High School,,-9.93046,6.35333,3,,Mapping,2013,10,13,30,1,0.033333333,30,10,0.333333333,30,2,0.066666667
24695,SCI,AFRO,Western Africa,Liberia,LBR,LR,Grand Bassa,2749,District #4,39190,Grand Bassa,26821,Tepenneh Public,,-9.65077,6.09368,3,,Mapping,2013,10,13,30,4,0.133333333,30,9,0.3,30,0,0
24696,SCI,AFRO,Western Africa,Liberia,LBR,LR,Grand Bassa,2749,District #3,39189,Grand Bassa,26821,The Salvation Army School System,,-10.04635,5.885067,3,,Mapping,2013,10,13,30,2,0.066666667,30,4,0.133333333,30,0,0
24697,SCI,AFRO,Western Africa,Liberia,LBR,LR,Grand Bassa,2749,District #2,39188,Grand Bassa,26821,Tobey Dyu-Public School,,-9.93756,6.2954,3,,Mapping,2013,9,14,30,3,0.1,30,7,0.233333333,30,0,0
24698,SCI,AFRO,Western Africa,Liberia,LBR,LR,Grand Bassa,2749,District #3,39189,Grand Bassa,26821,Trade Town Community School,,-9.55334,6.44303,3,,Mapping,2013,10,13,30,5,0.166666667,30,5,0.166666667,30,0,0
24699,SCI,AFRO,Western Africa,Liberia,LBR,LR,Grand Bassa,2749,District #3,39189,Grand Bassa,26821,Tubmanville Public School,,-9.86204,6.04859,3,,Mapping,2013,9,14,30,1,0.033333333,30,2,0.066666667,30,1,0.033333333
24700,SCI,AFRO,Western Africa,Liberia,LBR,LR,Grand Bassa,2749,District #1,39187,Grand Bassa,26821,Vahn Town Public School,,-10.1724267,6.1174304,1,,Mapping,2013,10,14,30,3,0.1,30,6,0.2,30,1,0.033333333
24701,SCI,AFRO,Western Africa,Liberia,LBR,LR,Grand Bassa,2749,District #1,39187,Grand Bassa,26821,W.r.f. Whitfield,,-10.3303,6.26589,3,,Mapping,2013,10,14,30,4,0.133333333,30,8,0.266666667,30,4,0.133333333
24702,SCI,AFRO,Western Africa,Liberia,LBR,LR,Grand Bassa,2749,District #3,39189,Grand Bassa,26821,Walker Foundation Public School,,-9.7197704,6.29035,3,,Mapping,2013,10,14,30,3,0.1,30,7,0.233333333,30,0,0
24703,SCI,AFRO,Western Africa,Liberia,LBR,LR,Grand Bassa,2749,District #3,39189,Grand Bassa,26821,William v. s Tubman Elem. & Jr,,-10.05075,5.8802671,3,,Mapping,2013,9,14,30,2,0.066666667,30,3,0.1,30,0,0
24704,SCI,AFRO,Western Africa,Liberia,LBR,LR,Grand Bassa,2749,District #2,39188,Grand Bassa,26821,Wreakento Public School,,-10.00569,6.11435,3,,Mapping,2013,10,14,30,4,0.133333333,30,5,0.166666667,30,1,0.033333333
24705,SCI,AFRO,Western Africa,Liberia,LBR,LR,Grand Bassa,2749,District #2,39188,Grand Bassa,26821,Wroahzohn Public School,,-9.68183,6.623144,3,,Mapping,2013,10,14,30,2,0.066666667,30,6,0.2,30,0,0
24706,SCI,AFRO,Western Africa,Liberia,LBR,LR,Grand Bassa,2749,District #3,39189,Grand Bassa,26821,Yaweys Camp School,,-9.77853,6.12611,3,,Mapping,2013,10,12,30,6,0.2,30,6,0.2,30,0,0
24707,SCI,AFRO,Western Africa,Liberia,LBR,LR,Grand Bassa,2749,District #1,39187,Grand Bassa,26821,Zoe Town Public School,,-10.18548,6.0566,3,,Mapping,2013,10,14,30,2,0.066666667,30,4,0.133333333,30,0,0
24708,SCI,AFRO,Western Africa,Liberia,LBR,LR,Grand Bassa,2749,District #3,39189,Grand Bassa,26821,Zuugar Public School,,-9.68183,6.23144,3,,Mapping,2013,10,14,30,2,0.066666667,30,8,0.266666667,30,0,0
21714,AFRO,AFRO,Western Africa,Liberia,LBR,LR,Grand Cape Mount,2750,Garwula,39191,Grand Cape Mount,26822,Boe Community School,,-11.28226,6.99269,3,,Mapping,2015,10,14,50,2,0.04,50,2,0.04,50,2,0.04
21715,AFRO,AFRO,Western Africa,Liberia,LBR,LR,Grand Cape Mount,2750,Tewor,39195,Grand Cape Mount,26822,Damballa Community School,,-11.2953,7.11236,3,,Mapping,2015,10,14,50,0,0,50,2,0.04,50,2,0.04
21716,AFRO,AFRO,Western Africa,Liberia,LBR,LR,Grand Cape Mount,2750,Klay,39172,Grand Cape Mount,26822,Danielson Public School,,-11.00729,6.73028,3,,Mapping,2015,10,14,50,1,0.02,50,2,0.04,50,2,0.04
21717,AFRO,AFRO,Western Africa,Liberia,LBR,LR,Grand Cape Mount,2750,Robertsport,39194,Grand Cape Mount,26822,Episcopal Elem  School,,-11.3616,6.75307,3,,Mapping,2015,10,14,50,0,0,50,2,0.04,50,2,0.04
21718,AFRO,AFRO,Western Africa,Liberia,LBR,LR,Grand Cape Mount,2750,Gola Konneh,39192,Grand Cape Mount,26822,Fahn Badah Public School,,-10.86936,7.15242,3,,Mapping,2015,10,14,50,0,0,50,3,0.06,50,3,0.06
21719,AFRO,AFRO,Western Africa,Liberia,LBR,LR,Grand Cape Mount,2750,Garwula,39191,Grand Cape Mount,26822,Fahnja Public School,,-11.29256,6.98696,3,,Mapping,2015,10,14,50,7,0.14,50,5,0.1,50,5,0.1
21720,AFRO,AFRO,Western Africa,Liberia,LBR,LR,Grand Cape Mount,2750,Robertsport,39194,Grand Cape Mount,26822,Falie Public Sch00l,,-11.3721,6.75661,3,,Mapping,2015,10,14,45,2,0.044444444,45,6,0.133333333,45,6,0.133333333
24714,SCI,AFRO,Western Africa,Liberia,LBR,LR,Grand Cape Mount,2750,Gola Konneh,39192,Grand Cape Mount,26822,Gbesseh en  Jr  Sior High School,,-11.09561,7.00012,3,,Mapping,2015,10,14,50,2,0.04,50,5,0.1,50,6,0.12
21722,AFRO,AFRO,Western Africa,Liberia,LBR,LR,Grand Cape Mount,2750,Tewor,39195,Grand Cape Mount,26822,Guassay Public School,,-11.27484,7.10283,3,,Mapping,2015,10,14,50,2,0.04,50,3,0.06,50,3,0.06
21723,AFRO,AFRO,Western Africa,Liberia,LBR,LR,Grand Cape Mount,2750,Gola Konneh,39192,Grand Cape Mount,26822,Harris Field Public School,,-10.87405,7.15881,3,,Mapping,2015,10,14,50,0,0,50,3,0.06,50,3,0.06
21724,AFRO,AFRO,Western Africa,Liberia,LBR,LR,Grand Cape Mount,2750,Bopolu,39184,Grand Cape Mount,26822,James M. Feflence,,-10.56722,7.12003,4,,Mapping,2015,10,14,50,3,0.06,50,3,0.06,50,3,0.06
21725,AFRO,AFRO,Western Africa,Liberia,LBR,LR,Grand Cape Mount,2750,Gola Konneh,39192,Grand Cape Mount,26822,Jarwajeh Danda Public School,,-10.87855,7.15619,3,,Mapping,2015,10,14,50,1,0.02,50,0,0,50,0,0
24718,SCI,AFRO,Western Africa,Liberia,LBR,LR,Grand Cape Mount,2750,Garwula,39191,Grand Cape Mount,26822,Jebbeh Kiazolu Public School,,-11.09561,6.88777,3,,Mapping,2015,10,15,50,0,0,50,4,0.08,50,5,0.1
21729,AFRO,AFRO,Western Africa,Liberia,LBR,LR,Grand Cape Mount,2750,Gola Konneh,39192,Grand Cape Mount,26822,Macca Public School,,-10.89113,7.16283,3,,Mapping,2015,10,14,50,0,0,50,4,0.08,50,4,0.08
21730,AFRO,AFRO,Western Africa,Liberia,LBR,LR,Grand Cape Mount,2750,Robertsport,39194,Grand Cape Mount,26822,Sembehun Public School,,-11.37041,6.75516,3,,Mapping,2015,10,14,50,1,0.02,50,1,0.02,50,1,0.02
21731,AFRO,AFRO,Western Africa,Liberia,LBR,LR,Grand Cape Mount,2750,Garwula,39191,Grand Cape Mount,26822,Sinje Public School,,-11.06448,6.88278,3,,Mapping,2015,10,14,50,0,0,50,1,0.02,50,1,0.02
21732,AFRO,AFRO,Western Africa,Liberia,LBR,LR,Grand Cape Mount,2750,Klay,39172,Grand Cape Mount,26822,Soko  Karnah Public School,,-11.01572,6.73681,3,,Mapping,2015,10,14,50,1,0.02,50,4,0.08,50,4,0.08
21733,AFRO,AFRO,Western Africa,Liberia,LBR,LR,Grand Cape Mount,2750,Gola Konneh,39192,Grand Cape Mount,26822,St. Andrew Episcopal School,,-10.90151,7.15196,3,,Mapping,2015,10,14,50,0,0,50,2,0.04,50,2,0.04
21734,AFRO,AFRO,Western Africa,Liberia,LBR,LR,Grand Cape Mount,2750,Gola Konneh,39192,Grand Cape Mount,26822,St. Philips Community School,,-11.18878,7.10691,3,,Mapping,2015,10,14,50,1,0.02,50,4,0.08,50,4,0.08
21735,AFRO,AFRO,Western Africa,Liberia,LBR,LR,Grand Cape Mount,2750,Garwula,39191,Grand Cape Mount,26822,Tienii Wonde Public School,,-11.29242,6.98822,3,,Mapping,2015,10,14,50,3,0.06,50,3,0.06,50,3,0.06
21736,AFRO,AFRO,Western Africa,Liberia,LBR,LR,Grand Cape Mount,2750,Robertsport,39194,Grand Cape Mount,26822,Tosr Publi  School,,-11.36571,6.75321,3,,Mapping,2015,10,14,50,0,0,50,2,0.04,50,2,0.04
21737,AFRO,AFRO,Western Africa,Liberia,LBR,LR,Grand Cape Mount,2750,Gola Konneh,39192,Grand Cape Mount,26822,Varney Kalilu Public School,,-11.19505,7.11354,3,,Mapping,2015,10,14,50,2,0.04,50,3,0.06,50,3,0.06
21738,AFRO,AFRO,Western Africa,Liberia,LBR,LR,Grand Cape Mount,2750,Klay,39172,Grand Cape Mount,26822,Vonzue Public School,,-11.00868,6.7515,3,,Mapping,2015,10,14,50,0,0,50,1,0.02,50,1,0.02
21739,AFRO,AFRO,Western Africa,Liberia,LBR,LR,Grand Cape Mount,2750,Tewor,39195,Grand Cape Mount,26822,Zimmi/Bamballa Public School,,-11.24221,7.10591,3,,Mapping,2015,10,14,50,1,0.02,50,5,0.1,50,5,0.1
24729,SCI,AFRO,Western Africa,Liberia,LBR,LR,Grand Gedeh,2751,Tchien,39198,Grand Gedeh,26823,A.t. Day Elementary School,,-8.1264268,6.0868817,1,,Mapping,2013,8,14,30,1,0.033333333,30,3,0.1,30,1,0.033333333
24730,SCI,AFRO,Western Africa,Liberia,LBR,LR,Grand Gedeh,2751,Tchien,39198,Grand Gedeh,26823,Adnantee Academy (Aa),,-8.1449699,6.08675,3,,Mapping,2013,9,14,30,4,0.133333333,30,4,0.133333333,30,2,0.066666667
24731,SCI,AFRO,Western Africa,Liberia,LBR,LR,Grand Gedeh,2751,Tchien,39198,Grand Gedeh,26823,Alphonso Gaye Elementary School (Gages),,-8.14043,6.0545,3,,Mapping,2013,8,14,30,4,0.133333333,30,5,0.166666667,30,3,0.1
24732,SCI,AFRO,Western Africa,Liberia,LBR,LR,Grand Gedeh,2751,Tchien,39198,Grand Gedeh,26823,Annie Dweh Christian Academic (Adca),,-8.14133,6.04718,3,,Mapping,2013,9,14,30,4,0.133333333,30,6,0.2,30,2,0.066666667
24733,SCI,AFRO,Western Africa,Liberia,LBR,LR,Grand Gedeh,2751,Tchien,39198,Grand Gedeh,26823,Arabic & English School,,-8.12742,6.06969,3,,Mapping,2013,9,14,30,3,0.1,30,3,0.1,30,1,0.033333333
24734,SCI,AFRO,Western Africa,Liberia,LBR,LR,Grand Gedeh,2751,Gbarzon,39196,Grand Gedeh,26823,Baker C.gaye,,-8.4361,6.22664,3,,Mapping,2013,9,15,30,1,0.033333333,30,1,0.033333333,30,0,0
24735,SCI,AFRO,Western Africa,Liberia,LBR,LR,Grand Gedeh,2751,Tchien,39198,Grand Gedeh,26823,Banglor Elementary School,,-8.10669,6.04447,3,,Mapping,2013,9,14,30,3,0.1,30,2,0.066666667,30,2,0.066666667
24736,SCI,AFRO,Western Africa,Liberia,LBR,LR,Grand Gedeh,2751,Gbarzon,39196,Grand Gedeh,26823,Bargblor Public School,,-8.33563,6.13454,3,,Mapping,2013,8,15,30,0,0,30,2,0.066666667,30,1,0.033333333
24737,SCI,AFRO,Western Africa,Liberia,LBR,LR,Grand Gedeh,2751,Tchien,39198,Grand Gedeh,26823,Benjima W. Collins,,-8.13998,6.06118,3,,Mapping,2013,9,14,30,1,0.033333333,30,5,0.166666667,30,0,0
24738,SCI,AFRO,Western Africa,Liberia,LBR,LR,Grand Gedeh,2751,Tchien,39198,Grand Gedeh,26823,Bishop Juwle High School (Bths),,-8.136413,6.0631041,1,,Mapping,2013,8,14,30,5,0.166666667,30,6,0.2,30,1,0.033333333
24739,SCI,AFRO,Western Africa,Liberia,LBR,LR,Grand Gedeh,2751,Tchien,39198,Grand Gedeh,26823,Bridge of Hope Elementary School (Bohes),,-8.13029,6.06089,3,,Mapping,2013,9,14,30,3,0.1,30,7,0.233333333,30,1,0.033333333
24740,SCI,AFRO,Western Africa,Liberia,LBR,LR,Grand Gedeh,2751,Tchien,39198,Grand Gedeh,26823,Calvary Temple Assembly of God Mission School (Ctagms),,-8.13981,6.0822,3,,Mapping,2013,9,14,30,0,0,30,0,0,30,0,0
24741,SCI,AFRO,Western Africa,Liberia,LBR,LR,Grand Gedeh,2751,Konobo,39197,Grand Gedeh,26823,Deah Memorial Academy,,-7.87209,5.73651,3,,Mapping,2013,8,15,30,0,0,30,9,0.3,30,1,0.033333333
24742,SCI,AFRO,Western Africa,Liberia,LBR,LR,Grand Gedeh,2751,Tchien,39198,Grand Gedeh,26823,Doe Community School,,-8.1345623,6.0619392,1,,Mapping,2013,8,13,30,0,0,30,0,0,30,0,0
24743,SCI,AFRO,Western Africa,Liberia,LBR,LR,Grand Gedeh,2751,Tchien,39198,Grand Gedeh,26823,Doh School of Academy Excellence (Dsae),,-8.12883,6.0768,3,,Mapping,2013,9,14,30,4,0.133333333,30,5,0.166666667,30,1,0.033333333
24744,SCI,AFRO,Western Africa,Liberia,LBR,LR,Grand Gedeh,2751,Gbarzon,39196,Grand Gedeh,26823,Dorr Elementary School,,-8.554,6.31661,3,,Mapping,2013,8,15,30,0,0,30,3,0.1,30,0,0
24745,SCI,AFRO,Western Africa,Liberia,LBR,LR,Grand Gedeh,2751,Konobo,39197,Grand Gedeh,26823,Dweh Memorial School,,-7.87856,5.78586,3,,Mapping,2013,8,15,30,0,0,30,2,0.066666667,30,0,0
24746,SCI,AFRO,Western Africa,Liberia,LBR,LR,Grand Gedeh,2751,Tchien,39198,Grand Gedeh,26823,Elrz Public School,,-8.1163301,6.0776,3,,Mapping,2013,9,14,30,2,0.066666667,30,1,0.033333333,30,1,0.033333333
24747,SCI,AFRO,Western Africa,Liberia,LBR,LR,Grand Gedeh,2751,Tchien,39198,Grand Gedeh,26823,Faith International School (Fis),,-8.125,6.07361,3,,Mapping,2013,9,14,30,1,0.033333333,30,3,0.1,30,0,0
24748,SCI,AFRO,Western Africa,Liberia,LBR,LR,Grand Gedeh,2751,Tchien,39198,Grand Gedeh,26823,Faith Temple Elementary School (Ftes),,-8.13938,6.06291,3,,Mapping,2013,9,14,30,5,0.166666667,30,4,0.133333333,30,0,0
24749,SCI,AFRO,Western Africa,Liberia,LBR,LR,Grand Gedeh,2751,Tchien,39198,Grand Gedeh,26823,Garley Town Public School,,-8.14578,6.17987,3,,Mapping,2013,8,15,30,0,0,30,1,0.033333333,30,0,0
24750,SCI,AFRO,Western Africa,Liberia,LBR,LR,Grand Gedeh,2751,Tchien,39198,Grand Gedeh,26823,Garyea Memorial Academy (Gma),,-8.1307402,6.05652,3,,Mapping,2013,9,14,30,3,0.1,30,3,0.1,30,0,0
24751,SCI,AFRO,Western Africa,Liberia,LBR,LR,Grand Gedeh,2751,Gbarzon,39196,Grand Gedeh,26823,Gaye Town Elementary School,,-8.47744,6.16653,3,,Mapping,2013,8,15,30,1,0.033333333,30,0,0,30,0,0
24752,SCI,AFRO,Western Africa,Liberia,LBR,LR,Grand Gedeh,2751,Tchien,39198,Grand Gedeh,26823,Gbagba Elementary School,,-8.1256178,6.0825813,1,,Mapping,2013,8,15,30,0,0,30,5,0.166666667,30,8,0.266666667
24753,SCI,AFRO,Western Africa,Liberia,LBR,LR,Grand Gedeh,2751,Tchien,39198,Grand Gedeh,26823,Gboliken Public School,,-8.19208,6.1086,3,,Mapping,2013,9,14,30,5,0.166666667,30,3,0.1,30,3,0.1
24754,SCI,AFRO,Western Africa,Liberia,LBR,LR,Grand Gedeh,2751,Tchien,39198,Grand Gedeh,26823,Gbolue Public School (Gbeps),,-8.2212979,5.9222078,1,,Mapping,2013,9,14,30,5,0.166666667,30,4,0.133333333,30,0,0
24755,SCI,AFRO,Western Africa,Liberia,LBR,LR,Grand Gedeh,2751,Gbeapo,39225,Grand Gedeh,26823,Geeblo Elementary School (Ges1),,-8.2221699,5.58672,3,,Mapping,2013,8,15,30,0,0,30,1,0.033333333,30,0,0
24756,SCI,AFRO,Western Africa,Liberia,LBR,LR,Grand Gedeh,2751,Tchien,39198,Grand Gedeh,26823,Gleplay Elementary School (Gles),,-8.07636,6.13358,3,,Mapping,2013,9,14,30,4,0.133333333,30,0,0,30,1,0.033333333
24757,SCI,AFRO,Western Africa,Liberia,LBR,LR,Grand Gedeh,2751,Konobo,39197,Grand Gedeh,26823,Gorbowrogba Elementary School (Goes),,-8.35,5.75299,3,,Mapping,2013,9,14,30,4,0.133333333,30,3,0.1,30,4,0.133333333
24758,SCI,AFRO,Western Africa,Liberia,LBR,LR,Grand Gedeh,2751,Gbarzon,39196,Grand Gedeh,26823,Gwein Elementary School,,-8.3687296,6.2054,3,,Mapping,2013,9,14,30,2,0.066666667,30,2,0.066666667,30,1,0.033333333
24759,SCI,AFRO,Western Africa,Liberia,LBR,LR,Grand Gedeh,2751,Tchien,39198,Grand Gedeh,26823,Henry & Harris Christain Academy,,-8.1478901,6.06284,3,,Mapping,2013,9,14,30,2,0.066666667,30,3,0.1,30,0,0
24760,SCI,AFRO,Western Africa,Liberia,LBR,LR,Grand Gedeh,2751,Tchien,39198,Grand Gedeh,26823,J.c Barley,,-8.1331,6.06557,3,,Mapping,2013,9,14,30,6,0.2,30,4,0.133333333,30,1,0.033333333
24761,SCI,AFRO,Western Africa,Liberia,LBR,LR,Grand Gedeh,2751,Tchien,39198,Grand Gedeh,26823,Jarbah Town Elementary School (Jates),,-8.1636801,6.00139,3,,Mapping,2013,9,14,30,4,0.133333333,30,4,0.133333333,30,4,0.133333333
24762,SCI,AFRO,Western Africa,Liberia,LBR,LR,Grand Gedeh,2751,Konobo,39197,Grand Gedeh,26823,Jarwodee Elementary & Jr. High School (Jejhs),,-8.31705,5.61421,3,,Mapping,2013,8,15,30,0,0,30,0,0,30,0,0
24763,SCI,AFRO,Western Africa,Liberia,LBR,LR,Grand Gedeh,2751,Gbarzon,39196,Grand Gedeh,26823,Jarwodee Elementary School,,-8.60188,6.1126,3,,Mapping,2013,10,15,30,0,0,30,4,0.133333333,30,0,0
24764,SCI,AFRO,Western Africa,Liberia,LBR,LR,Grand Gedeh,2751,Konobo,39197,Grand Gedeh,26823,John Davis Public School,,-8.10361,5.6943,3,,Mapping,2013,8,15,30,2,0.066666667,30,1,0.033333333,30,0,0
24765,SCI,AFRO,Western Africa,Liberia,LBR,LR,Grand Gedeh,2751,Tchien,39198,Grand Gedeh,26823,Johnny Gaye Elementary School (Jees),,-8.1817503,5.98317,3,,Mapping,2013,9,14,30,5,0.166666667,30,4,0.133333333,30,1,0.033333333
24766,SCI,AFRO,Western Africa,Liberia,LBR,LR,Grand Gedeh,2751,Tchien,39198,Grand Gedeh,26823,Julutuzon Elementary School (Jutues),,-8.06761,6.0984,3,,Mapping,2013,9,14,30,6,0.2,30,2,0.066666667,30,1,0.033333333
24767,SCI,AFRO,Western Africa,Liberia,LBR,LR,Grand Gedeh,2751,Gbarzon,39196,Grand Gedeh,26823,Juluzon Elementary School,,-8.61135,6.09429,3,,Mapping,2013,8,15,30,1,0.033333333,30,1,0.033333333,30,0,0
24768,SCI,AFRO,Western Africa,Liberia,LBR,LR,Grand Gedeh,2751,Konobo,39197,Grand Gedeh,26823,Karlowleh Town Public School,,-8.1494198,5.74754,3,,Mapping,2013,8,15,30,1,0.033333333,30,0,0,30,0,0
24769,SCI,AFRO,Western Africa,Liberia,LBR,LR,Grand Gedeh,2751,Konobo,39197,Grand Gedeh,26823,Keh Town Public School (Ktps1),,-8.34307,5.6111468,1,,Mapping,2013,8,14,30,0,0,30,6,0.2,30,0,0
24770,SCI,AFRO,Western Africa,Liberia,LBR,LR,Grand Gedeh,2751,Konobo,39197,Grand Gedeh,26823,Konobo Central High,,-7.8529,5.76246,3,,Mapping,2013,8,14,30,7,0.233333333,30,5,0.166666667,30,5,0.166666667
24772,SCI,AFRO,Western Africa,Liberia,LBR,LR,Grand Gedeh,2751,Konobo,39197,Grand Gedeh,26823,Kyne Town Public School (Kytps),,-8.34139,5.77571,3,,Mapping,2013,9,14,30,7,0.233333333,30,5,0.166666667,30,1,0.033333333
24773,SCI,AFRO,Western Africa,Liberia,LBR,LR,Grand Gedeh,2751,Tchien,39198,Grand Gedeh,26823,Len Sheron Elementary School,,-8.13033,6.06996,3,,Mapping,2013,8,14,30,0,0,30,5,0.166666667,30,1,0.033333333
24774,SCI,AFRO,Western Africa,Liberia,LBR,LR,Grand Gedeh,2751,Gbarzon,39196,Grand Gedeh,26823,Lutheron Elementary School,,-8.44007,6.22877,3,,Mapping,2013,8,13,30,0,0,30,1,0.033333333,30,0,0
24775,SCI,AFRO,Western Africa,Liberia,LBR,LR,Grand Gedeh,2751,Tchien,39198,Grand Gedeh,26823,M.nixon Garlo Evangelical Lutheran School,,-8.1353183,6.0723865,1,,Mapping,2013,10,15,30,3,0.1,30,2,0.066666667,30,0,0
24776,SCI,AFRO,Western Africa,Liberia,LBR,LR,Grand Gedeh,2751,Tchien,39198,Grand Gedeh,26823,Manyea Town Elementary School (Mtes),,-8.08945,6.00462,3,,Mapping,2013,9,14,30,4,0.133333333,30,3,0.1,30,0,0
24777,SCI,AFRO,Western Africa,Liberia,LBR,LR,Grand Gedeh,2751,Gbarzon,39196,Grand Gedeh,26823,Marbo Elementary School,,-8.5103102,6.26896,3,,Mapping,2013,8,15,30,1,0.033333333,30,0,0,30,1,0.033333333
24778,SCI,AFRO,Western Africa,Liberia,LBR,LR,Grand Gedeh,2751,Tchien,39198,Grand Gedeh,26823,Mike Tuleh Wilson Elementary School,,-8.13326,6.0770321,1,,Mapping,2013,8,14,30,5,0.166666667,30,4,0.133333333,30,2,0.066666667
24779,SCI,AFRO,Western Africa,Liberia,LBR,LR,Grand Gedeh,2751,Tchien,39198,Grand Gedeh,26823,Mike Tuleh Wilson Jr & High School (Mtwhs),,-8.13322,6.07681,3,,Mapping,2013,13,14,30,5,0.166666667,30,5,0.166666667,30,2,0.066666667
24780,SCI,AFRO,Western Africa,Liberia,LBR,LR,Grand Gedeh,2751,Konobo,39197,Grand Gedeh,26823,Moses T. Brooks Elementary School,,-7.85294,5.76243,3,,Mapping,2013,8,15,30,9,0.3,30,9,0.3,30,5,0.166666667
24781,SCI,AFRO,Western Africa,Liberia,LBR,LR,Grand Gedeh,2751,Tchien,39198,Grand Gedeh,26823,Muslim Conselloration School (Mucs),,-8.13158,6.06902,3,,Mapping,2013,9,14,30,1,0.033333333,30,0,0,30,1,0.033333333
24782,SCI,AFRO,Western Africa,Liberia,LBR,LR,Grand Gedeh,2751,Tappita,39222,Grand Gedeh,26823,Myers Elementary School,,-8.62152,6.44097,3,,Mapping,2013,8,15,30,0,0,30,2,0.066666667,30,0,0
24784,SCI,AFRO,Western Africa,Liberia,LBR,LR,Grand Gedeh,2751,Tchien,39198,Grand Gedeh,26823,New Hope Christian Academy School (Nhca),,-8.12988,6.0861,3,,Mapping,2013,9,14,30,4,0.133333333,30,3,0.1,30,0,0
24785,SCI,AFRO,Western Africa,Liberia,LBR,LR,Grand Gedeh,2751,Konobo,39197,Grand Gedeh,26823,New Town Public School (Ntps),,-8.28561,5.61704,3,,Mapping,2013,8,15,30,2,0.066666667,30,2,0.066666667,30,0,0
24786,SCI,AFRO,Western Africa,Liberia,LBR,LR,Grand Gedeh,2751,Konobo,39197,Grand Gedeh,26823,Panwlorh Public School,,-8.12862,5.66499,3,,Mapping,2013,10,15,30,0,0,30,4,0.133333333,30,0,0
24787,SCI,AFRO,Western Africa,Liberia,LBR,LR,Grand Gedeh,2751,Gbeapo,39225,Grand Gedeh,26823,Pennoken Elementary & Jr. High School (Pejhs),,-8.15218,5.60749,3,,Mapping,2013,8,15,30,0,0,30,6,0.2,30,0,0
24788,SCI,AFRO,Western Africa,Liberia,LBR,LR,Grand Gedeh,2751,Konobo,39197,Grand Gedeh,26823,Peter C. Thomas Elementary School,,-7.98375,5.87523,3,,Mapping,2013,8,15,30,0,0,30,0,0,30,0,0
24789,SCI,AFRO,Western Africa,Liberia,LBR,LR,Grand Gedeh,2751,Konobo,39197,Grand Gedeh,26823,Petrokon Public School,,-8.1402702,5.64502,3,,Mapping,2013,8,14,30,0,0,30,4,0.133333333,30,0,0
24790,SCI,AFRO,Western Africa,Liberia,LBR,LR,Grand Gedeh,2751,Gbarzon,39196,Grand Gedeh,26823,Pokor Elementary School,,-8.57842,6.43554,3,,Mapping,2013,8,12,30,0,0,30,6,0.2,30,0,0
24791,SCI,AFRO,Western Africa,Liberia,LBR,LR,Grand Gedeh,2751,Gbarzon,39196,Grand Gedeh,26823,Polar Elementary and Jr High School,,-8.56301,6.15967,3,,Mapping,2013,8,15,30,0,0,30,4,0.133333333,30,0,0
24792,SCI,AFRO,Western Africa,Liberia,LBR,LR,Grand Gedeh,2751,Gbarzon,39196,Grand Gedeh,26823,Pouh Elementary School,,-8.41122,6.22714,3,,Mapping,2013,8,15,30,0,0,30,0,0,30,0,0
24793,SCI,AFRO,Western Africa,Liberia,LBR,LR,Grand Gedeh,2751,Tchien,39198,Grand Gedeh,26823,Precious Jewel Elementary School (Pjes),,-8.13875,6.06575,3,,Mapping,2013,9,14,30,4,0.133333333,30,2,0.066666667,30,1,0.033333333
24794,SCI,AFRO,Western Africa,Liberia,LBR,LR,Grand Gedeh,2751,Tchien,39198,Grand Gedeh,26823,Quarthy Memorial School,,-8.118173,6.0639439,1,,Mapping,2013,9,14,30,4,0.133333333,30,4,0.133333333,30,0,0
24795,SCI,AFRO,Western Africa,Liberia,LBR,LR,Grand Gedeh,2751,Tchien,39198,Grand Gedeh,26823,R.b. Richardson Baptist,,-8.13887,6.06572,3,,Mapping,2013,9,14,30,4,0.133333333,30,4,0.133333333,30,0,0
24797,SCI,AFRO,Western Africa,Liberia,LBR,LR,Grand Gedeh,2751,Konobo,39197,Grand Gedeh,26823,Sayon Memorial School,,-8.15564,5.81759,3,,Mapping,2013,8,15,30,3,0.1,30,4,0.133333333,30,1,0.033333333
24798,SCI,AFRO,Western Africa,Liberia,LBR,LR,Grand Gedeh,2751,Konobo,39197,Grand Gedeh,26823,Sennitrodru Elementary School,,-7.95608,5.8472,3,,Mapping,2013,8,15,30,0,0,30,0,0,30,1,0.033333333
24799,SCI,AFRO,Western Africa,Liberia,LBR,LR,Grand Gedeh,2751,Tchien,39198,Grand Gedeh,26823,Solid Foundation School,,-8.1411189,6.0749897,1,,Mapping,2013,9,14,30,1,0.033333333,30,2,0.066666667,30,0,0
24800,SCI,AFRO,Western Africa,Liberia,LBR,LR,Grand Gedeh,2751,Tchien,39198,Grand Gedeh,26823,Solo Town Public School,,-8.2609544,6.0722844,1,,Mapping,2013,8,15,30,0,0,30,0,0,30,1,0.033333333
24801,SCI,AFRO,Western Africa,Liberia,LBR,LR,Grand Gedeh,2751,Gbarzon,39196,Grand Gedeh,26823,Sowakan Public School 1,,-8.2822199,6.24017,3,,Mapping,2013,9,14,30,2,0.066666667,30,1,0.033333333,30,0,0
24802,SCI,AFRO,Western Africa,Liberia,LBR,LR,Grand Gedeh,2751,Tchien,39198,Grand Gedeh,26823,St. Paul Elementary School (Spls),,-8.1412601,6.06885,3,,Mapping,2013,8,15,30,7,0.233333333,30,3,0.1,30,0,0
24803,SCI,AFRO,Western Africa,Liberia,LBR,LR,Grand Gedeh,2751,Tchien,39198,Grand Gedeh,26823,St. Paul Lutheran School (Stpls),,-8.1430197,6.06075,3,,Mapping,2013,9,14,30,0,0,30,0,0,30,0,0
24804,SCI,AFRO,Western Africa,Liberia,LBR,LR,Grand Gedeh,2751,Tchien,39198,Grand Gedeh,26823,St. Philomena Catholic School (Spcs),,-8.13641,6.06553,3,,Mapping,2013,9,15,30,0,0,30,0,0,30,0,0
24805,SCI,AFRO,Western Africa,Liberia,LBR,LR,Grand Gedeh,2751,Gbarzon,39196,Grand Gedeh,26823,Tian Town Public School,,-8.48554,6.26283,3,,Mapping,2013,8,14,30,0,0,30,0,0,30,0,0
24806,SCI,AFRO,Western Africa,Liberia,LBR,LR,Grand Gedeh,2751,Gbarzon,39196,Grand Gedeh,26823,Toe Community School,,-8.55615,6.40514,3,,Mapping,2013,8,15,30,0,0,30,0,0,30,0,0
24807,SCI,AFRO,Western Africa,Liberia,LBR,LR,Grand Gedeh,2751,Gbarzon,39196,Grand Gedeh,26823,Toe Memorial Institude,,-8.55866,6.40851,3,,Mapping,2013,8,15,30,0,0,30,0,0,30,0,0
24808,SCI,AFRO,Western Africa,Liberia,LBR,LR,Grand Gedeh,2751,Gbarzon,39196,Grand Gedeh,26823,Tojalla Town Elementary,,-8.32183,6.09144,3,,Mapping,2013,8,13,30,0,0,30,4,0.133333333,30,0,0
24809,SCI,AFRO,Western Africa,Liberia,LBR,LR,Grand Gedeh,2751,Tchien,39198,Grand Gedeh,26823,Tsa Sunhill Elementary & Jr High School,,-8.1350899,6.08217,3,,Mapping,2013,8,14,30,1,0.033333333,30,2,0.066666667,30,0,0
24810,SCI,AFRO,Western Africa,Liberia,LBR,LR,Grand Gedeh,2751,Konobo,39197,Grand Gedeh,26823,Tuglor Public School,,-7.90971,5.84806,3,,Mapping,2013,8,14,30,0,0,30,10,0.333333333,30,0,0
24811,SCI,AFRO,Western Africa,Liberia,LBR,LR,Grand Gedeh,2751,Tchien,39198,Grand Gedeh,26823,"United Methodist School, Zwedru",,-8.1288086,6.0874704,1,,Mapping,2013,8,15,30,0,0,30,3,0.1,30,1,0.033333333
24812,SCI,AFRO,Western Africa,Liberia,LBR,LR,Grand Gedeh,2751,Tchien,39198,Grand Gedeh,26823,Wochirrc Community School (Wochir),,-8.1427521,6.0710796,1,,Mapping,2013,9,14,30,5,0.166666667,30,6,0.2,30,2,0.066666667
24813,SCI,AFRO,Western Africa,Liberia,LBR,LR,Grand Gedeh,2751,Konobo,39197,Grand Gedeh,26823,Wulu Town Public School,,-7.9170713,5.8232679,1,,Mapping,2013,8,15,30,0,0,30,1,0.033333333,30,0,0
24814,SCI,AFRO,Western Africa,Liberia,LBR,LR,Grand Gedeh,2751,Gbarzon,39196,Grand Gedeh,26823,Zabaku Elementary School,,-8.57416,6.13882,3,,Mapping,2013,8,15,30,2,0.066666667,30,2,0.066666667,30,0,0
24815,SCI,AFRO,Western Africa,Liberia,LBR,LR,Grand Gedeh,2751,Gbarzon,39196,Grand Gedeh,26823,Zai Town Public School,,-8.29686,6.19514,3,,Mapping,2013,8,15,30,0,0,30,0,0,30,1,0.033333333
24816,SCI,AFRO,Western Africa,Liberia,LBR,LR,Grand Gedeh,2751,Tchien,39198,Grand Gedeh,26823,Zewdru Elementary School,,-8.1393179,6.064944,1,,Mapping,2013,8,13,30,3,0.1,30,5,0.166666667,30,0,0
24817,SCI,AFRO,Western Africa,Liberia,LBR,LR,Grand Gedeh,2751,Konobo,39197,Grand Gedeh,26823,Ziah Town Elementary School,,-7.853574,5.747776,1,,Mapping,2013,8,13,30,7,0.233333333,30,9,0.3,30,4,0.133333333
24819,SCI,AFRO,Western Africa,Liberia,LBR,LR,Grand Kru,2752,Upper Kru Coast,39202,Grand Kru,26824,A. a Hoff Elem & Jr. High School,,-8.166228,4.670428,3,,Mapping,2015,10,14,50,0,0,50,44,0.88,50,0,0
24820,SCI,AFRO,Western Africa,Liberia,LBR,LR,Grand Kru,2752,Trehn,39201,Grand Kru,26824,Anna e Holl Ums Elem & Jr High School,,-7.929604,4.501832,3,,Mapping,2015,10,14,50,0,0,50,44,0.88,50,0,0
24823,SCI,AFRO,Western Africa,Liberia,LBR,LR,Grand Kru,2752,Sasstown,39200,Grand Kru,26824,Betu Elem & Jr. High School,,-8.481595,4.711743,3,,Mapping,2015,10,14,50,0,0,50,47,0.94,50,0,0
24824,SCI,AFRO,Western Africa,Liberia,LBR,LR,Grand Kru,2752,Buah,39199,Grand Kru,26824,Buah Central High School,,-8.16352,4.945264,3,,Mapping,2015,10,14,50,0,0,50,40,0.8,50,0,0
24825,SCI,AFRO,Western Africa,Liberia,LBR,LR,Grand Kru,2752,Upper Kru Coast,39202,Grand Kru,26824,Buloken Elem & Jr. High School,,-8.17868,4.611998,3,,Mapping,2015,10,14,50,0,0,50,46,0.92,50,0,0
24826,SCI,AFRO,Western Africa,Liberia,LBR,LR,Grand Kru,2752,Upper Kru Coast,39202,Grand Kru,26824,Clinakeleh Elem School,,-8.212975,4.58042,3,,Mapping,2015,10,14,50,0,0,50,49,0.98,50,0,0
24827,SCI,AFRO,Western Africa,Liberia,LBR,LR,Grand Kru,2752,Sasstown,39200,Grand Kru,26824,Dayokpo Public School,,-8.36996,4.749248,3,,Mapping,2015,10,14,50,0,0,50,40,0.8,50,0,0
24829,SCI,AFRO,Western Africa,Liberia,LBR,LR,Grand Kru,2752,Buah,39199,Grand Kru,26824,Doe Swen Public School,,-8.269223,5.028806,3,,Mapping,2015,10,14,50,0,0,50,47,0.94,50,0,0
24830,SCI,AFRO,Western Africa,Liberia,LBR,LR,Grand Kru,2752,Buah,39199,Grand Kru,26824,Dweken Community School,,-8.104409,5.054254,3,,Mapping,2015,10,14,50,0,0,50,43,0.86,50,0,0
24831,SCI,AFRO,Western Africa,Liberia,LBR,LR,Grand Kru,2752,Sasstown,39200,Grand Kru,26824,G. t Worjloh Kg & Elem Sch,,-8.424846,4.672774,3,,Mapping,2015,10,14,50,0,0,50,43,0.86,50,0,0
24832,SCI,AFRO,Western Africa,Liberia,LBR,LR,Grand Kru,2752,Trehn,39201,Grand Kru,26824,Garraway Elem. Jr & High School,,-7.929695,4.500498,3,,Mapping,2015,10,14,50,0,0,50,42,0.84,50,0,0
24833,SCI,AFRO,Western Africa,Liberia,LBR,LR,Grand Kru,2752,Upper Kru Coast,39202,Grand Kru,26824,Gbanken Elem. & Jr. High Sch,,-8.115751,4.630403,3,,Mapping,2015,10,14,50,0,0,50,50,1,50,0,0
24834,SCI,AFRO,Western Africa,Liberia,LBR,LR,Grand Kru,2752,Upper Kru Coast,39202,Grand Kru,26824,Gbuken Public School,,-8.162397,4.697493,3,,Mapping,2015,10,14,50,0,0,50,44,0.88,50,0,0
24835,SCI,AFRO,Western Africa,Liberia,LBR,LR,Grand Kru,2752,Trehn,39201,Grand Kru,26824,Geneken Public School,,-7.914523,4.682786,3,,Mapping,2015,10,14,50,0,0,50,39,0.78,50,0,0
24836,SCI,AFRO,Western Africa,Liberia,LBR,LR,Grand Kru,2752,Upper Kru Coast,39202,Grand Kru,26824,J. Blamo Toe Elem School,,-8.217525,4.67289,3,,Mapping,2015,10,14,50,0,0,50,49,0.98,50,0,0
24837,SCI,AFRO,Western Africa,Liberia,LBR,LR,Grand Kru,2752,Upper Kru Coast,39202,Grand Kru,26824,J. t Nimely Elem. Schoo,,-8.219204,4.569542,3,,Mapping,2015,10,14,50,0,0,50,46,0.92,50,0,0
24838,SCI,AFRO,Western Africa,Liberia,LBR,LR,Grand Kru,2752,Buah,39199,Grand Kru,26824,J.s. Doe Elem. School,,-8.163471,4.951529,3,,Mapping,2015,10,14,50,0,0,50,48,0.96,50,0,0
24839,SCI,AFRO,Western Africa,Liberia,LBR,LR,Grand Kru,2752,Upper Kru Coast,39202,Grand Kru,26824,Jireh Solid Foundation School,,-8.235142,4.678927,3,,Mapping,2015,10,15,49,0,0,49,49,1,49,0,0
24840,SCI,AFRO,Western Africa,Liberia,LBR,LR,Grand Kru,2752,Buah,39199,Grand Kru,26824,John S. Worken Elem School,,-8.240607,4.906716,3,,Mapping,2015,10,14,50,0,0,50,47,0.94,50,0,0
24841,SCI,AFRO,Western Africa,Liberia,LBR,LR,Grand Kru,2752,Jaedae Jaedepo,39232,Grand Kru,26824,Mipliakpa Elem School,,-8.5314,4.962884,3,,Mapping,2015,10,14,50,0,0,50,41,0.82,50,0,0
24842,SCI,AFRO,Western Africa,Liberia,LBR,LR,Grand Kru,2752,Trehn,39201,Grand Kru,26824,Newaken Elem. & Jr. High Sch,,-7.937527,4.69533,3,,Mapping,2015,10,14,50,0,0,50,42,0.84,50,0,0
24843,SCI,AFRO,Western Africa,Liberia,LBR,LR,Grand Kru,2752,Sasstown,39200,Grand Kru,26824,Nifu Elem & Jr. High School,,-8.505749,4.726864,3,,Mapping,2015,10,14,50,0,0,50,46,0.92,50,0,0
24844,SCI,AFRO,Western Africa,Liberia,LBR,LR,Grand Kru,2752,Sasstown,39200,Grand Kru,26824,Nrokwia Public School,,-8.30541,4.80949,3,,Mapping,2015,10,14,50,0,0,50,43,0.86,50,0,0
24846,SCI,AFRO,Western Africa,Liberia,LBR,LR,Grand Kru,2752,Upper Kru Coast,39202,Grand Kru,26824,P. G. Wollor Elem School,,-8.217362,4.569143,3,,Mapping,2015,10,14,50,0,0,50,41,0.82,50,0,0
24847,SCI,AFRO,Western Africa,Liberia,LBR,LR,Grand Kru,2752,Trehn,39201,Grand Kru,26824,Pennuken Elem & Jr High School,,-7.910688,4.673741,3,,Mapping,2015,10,14,50,0,0,50,41,0.82,50,0,0
24848,SCI,AFRO,Western Africa,Liberia,LBR,LR,Grand Kru,2752,Buah,39199,Grand Kru,26824,Peter Trah Elem School,,-8.160263,4.957507,3,,Mapping,2015,10,14,50,0,0,50,44,0.88,50,0,0
24850,SCI,AFRO,Western Africa,Liberia,LBR,LR,Grand Kru,2752,Buah,39199,Grand Kru,26824,S. s Chea Elem School,,-8.103878,5.055078,3,,Mapping,2015,10,14,50,0,0,50,41,0.82,50,0,0
24851,SCI,AFRO,Western Africa,Liberia,LBR,LR,Grand Kru,2752,Upper Kru Coast,39202,Grand Kru,26824,S.j. k Nyanpan School,,-8.239271,4.670503,3,,Mapping,2015,10,15,50,0,0,50,50,1,50,0,0
24852,SCI,AFRO,Western Africa,Liberia,LBR,LR,Grand Kru,2752,Buah,39199,Grand Kru,26824,Sally B. Toobyabu Elem School,,-8.16361,4.942927,3,,Mapping,2015,10,14,50,0,0,50,44,0.88,50,0,0
